,id,ask,bedrooms,title,original_title,cl_title,address,post_at,created_at,updated_at,source_id,survey_id,latitude,longitude,uniqueid,town,comm_type,tract10,ct10_id,neighborhood_01,neighborhood_02,neighborhood_03
175511,607543,3500,5, FIVE BEDROOM ONE BATHROOM APARTMENT 95 CALUMET ST ,5BR/1BA Apartment - 95 Calumet St, FIVE BEDROOM ONE BATHROOM APARTMENT 95 CALUMET ST ,,8/8/15 6:24,11:25.3,11:25.3,2,39,-71.1037,42.3313,3500 5 5BR 1BA Apartment   95 Calumet St -71.1037 42.3313,BOSTON,Inner Core,80900.0,25025080900.0,Mission Hill,Mission Hill,MISSION HILL
175512,607544,3050,2, TWO BEDROOM TWO BATHROOM APARTMENT 72 STANIFORD ST ,2BR/2BA Apartment - 72 Staniford St, TWO BEDROOM TWO BATHROOM APARTMENT 72 STANIFORD ST ,,8/8/15 3:24,11:25.4,11:25.4,2,39,-71.0633,42.3637,3050 2 2BR 2BA Apartment   72 Staniford St -71.0633 42.3637,BOSTON,Inner Core,20303.0,25025020303.0,West End,Downtown,N END/WATERFRONT
175513,607545,1780,0, 0 BEDROOM ONE BATHROOM APARTMENT 21 FAIRBANKS ST ,0BR/1BA Apartment - 21 Fairbanks St, 0 BEDROOM ONE BATHROOM APARTMENT 21 FAIRBANKS ST ,,3/26/15 20:17,11:25.4,11:25.4,2,39,-71.1314,42.3388,1780 0 0BR 1BA Apartment   21 Fairbanks St -71.1314 42.3388,BROOKLINE,Inner Core,400500.0,25021400500.0,,,
175514,607546,5850,2, TWO BEDROOM TWO BATHROOM APARTMENT 530 ATLANTIC AVE ,2BR/2BA Apartment - 530 Atlantic Ave, TWO BEDROOM TWO BATHROOM APARTMENT 530 ATLANTIC AVE ,,8/11/15 22:47,11:25.4,11:25.4,2,39,-71.0534,42.3538,5850 2 2BR 2BA Apartment   530 Atlantic Ave -71.0534 42.3538,BOSTON,Inner Core,70101.0,25025070101.0,Downtown,Downtown,CHINATOWN/FINANCIAL
175515,607547,1830,1, ONE BEDROOM ONE BATHROOM APARTMENT 100 HEARD ST ,1BR/1BA Apartment - 100 Heard St, ONE BEDROOM ONE BATHROOM APARTMENT 100 HEARD ST ,,8/8/15 4:42,11:25.4,11:25.4,2,39,-71.0362,42.3981,1830 1 1BR 1BA Apartment   100 Heard St -71.0362 42.3981,CHELSEA,Inner Core,160501.0,25025160501.0,,,
175516,607548,2100,1, ONE BEDROOM ONE BATHROOM APARTMENT 49 SYMPHONY RD ,1BR/1BA Apartment - 49 Symphony Rd, ONE BEDROOM ONE BATHROOM APARTMENT 49 SYMPHONY RD ,,10/17/15 13:58,11:25.4,11:25.4,2,39,-71.0891,42.3431,2100 1 1BR 1BA Apartment   49 Symphony Rd -71.0891 42.3431,BOSTON,Inner Core,10404.0,25025010404.0,Fenway,Fenway,FENWAY
175517,607549,3000,1, ONE BEDROOM ONE BATHROOM APARTMENT 45 MYRTLE ST ,1BR/1BA Apartment - 45 Myrtle St, ONE BEDROOM ONE BATHROOM APARTMENT 45 MYRTLE ST ,,9/12/15 22:38,11:25.4,11:25.4,2,39,-71.0661,42.3596,3000 1 1BR 1BA Apartment   45 Myrtle St -71.0661 42.3596,BOSTON,Inner Core,20200.0,25025020200.0,Beacon Hill,Beacon Hill,BACK BAY B HILL
175518,607550,2000,1, ONE BEDROOM ONE 0 BATHROOM 575 SQFT TWO 000 ONE BR ,"One BR, 1.0 BA, 575 sqft, $2,000 - One BR", ONE BEDROOM ONE 0 BATHROOM 575 SQFT TWO 000 ONE BR ,,12/9/15 0:49,11:25.4,11:25.4,2,39,-71.053925,42.357597,2000 1 One BR  1 0 BA  575 sqft   2 000   One BR -71.053925 42.357597,BOSTON,Inner Core,70101.0,25025070101.0,Downtown,Downtown,CHINATOWN/FINANCIAL
175519,607551,2350,2, TWO BEDROOM ONE BATHROOM APARTMENT 26 ALLSTON ST ,2BR/1BA Apartment - 26 Allston St, TWO BEDROOM ONE BATHROOM APARTMENT 26 ALLSTON ST ,,8/19/15 21:48,11:25.4,11:25.4,2,39,-71.1351,42.3523,2350 2 2BR 1BA Apartment   26 Allston St -71.1351 42.3523,BOSTON,Inner Core,704.0,25025000704.0,Allston,Allston,BRIGHTON
175520,607552,3300,2, TWO BEDROOM ONE BATHROOM APARTMENT 67 STREET GERMAIN ST ,2BR/1BA Apartment - 67 St Germain St, TWO BEDROOM ONE BATHROOM APARTMENT 67 STREET GERMAIN ST ,,8/8/15 5:28,11:25.4,11:25.4,2,39,-71.0843,42.3455,3300 2 2BR 1BA Apartment   67 St Germain St -71.0843 42.3455,BOSTON,Inner Core,10500.0,25025010500.0,Back Bay,Back Bay,FENWAY
175521,607553,3100,2, TWO BEDROOM ONE BATHROOM APARTMENT 49 SYMPHONY RD ,2BR/1BA Apartment - 49 Symphony Rd, TWO BEDROOM ONE BATHROOM APARTMENT 49 SYMPHONY RD ,,3/26/15 20:10,11:25.4,11:25.4,2,39,-71.0891,42.3431,3100 2 2BR 1BA Apartment   49 Symphony Rd -71.0891 42.3431,BOSTON,Inner Core,10404.0,25025010404.0,Fenway,Fenway,FENWAY
175522,607554,2416,2, TWO BEDROOM TWO BATHROOM APARTMENT 550 LIBERTY ST ,2BR/2BA Apartment - 550 Liberty St, TWO BEDROOM TWO BATHROOM APARTMENT 550 LIBERTY ST ,,8/8/15 4:43,11:25.4,11:25.4,2,39,-70.9848,42.202,2416 2 2BR 2BA Apartment   550 Liberty St -70.9848 42.202,BRAINTREE,Maturing Suburbs,419700.0,25021419700.0,,,
175523,607555,4000,4, FOUR BEDROOM TWO BATHROOM APARTMENT 14 PARKER HILL AVE ,4BR/2BA Apartment - 14 Parker Hill Ave, FOUR BEDROOM TWO BATHROOM APARTMENT 14 PARKER HILL AVE ,,8/8/15 5:38,11:25.4,11:25.4,2,39,-71.1094,42.3326,4000 4 4BR 2BA Apartment   14 Parker Hill Ave -71.1094 42.3326,BOSTON,Inner Core,81001.0,25025081001.0,Mission Hill,Mission Hill,MISSION HILL
175524,607556,2330,1, ONE BEDROOM ONE BATHROOM APARTMENT 60 STREET GERMAIN ST ,1BR/1BA Apartment - 60 St Germain St, ONE BEDROOM ONE BATHROOM APARTMENT 60 STREET GERMAIN ST ,,8/8/15 6:08,11:25.4,11:25.4,2,39,-71.0847,42.3457,2330 1 1BR 1BA Apartment   60 St Germain St -71.0847 42.3457,BOSTON,Inner Core,10500.0,25025010500.0,Back Bay,Back Bay,FENWAY
175525,607557,3500,3, THREE BEDROOM TWO FIVE BATHROOM APARTMENT 19 JOHNSON ST ,3BR/2.5BA Apartment - 19 Johnson St, THREE BEDROOM TWO FIVE BATHROOM APARTMENT 19 JOHNSON ST ,,10/22/15 0:11,11:25.4,11:25.4,2,39,-71.1635,42.2728,3500 3 3BR 2 5BA Apartment   19 Johnson St -71.1635 42.2728,BOSTON,Inner Core,130402.0,25025130402.0,West Roxbury,West Roxbury,WEST ROXBURY
175526,607558,2200,2, TWO BEDROOM ONE BATHROOM APARTMENT 15 COLLISTON RD ,2BR/1BA Apartment - 15 Colliston Rd, TWO BEDROOM ONE BATHROOM APARTMENT 15 COLLISTON RD ,,11/18/15 15:08,11:25.4,11:25.4,2,39,-71.1457,42.3396,2200 2 2BR 1BA Apartment   15 Colliston Rd -71.1457 42.3396,BOSTON,Inner Core,504.0,25025000504.0,Brighton,Brighton,BRIGHTON
175527,607559,2525,2, TWO BEDROOM ONE FIVE BATHROOM APARTMENT 298 INDEPENDENCE DR ,2BR/1.5BA Apartment - 298 Independence Dr, TWO BEDROOM ONE FIVE BATHROOM APARTMENT 298 INDEPENDENCE DR ,,8/8/15 6:54,11:25.4,11:25.4,2,39,-71.1577,42.2968,2525 2 2BR 1 5BA Apartment   298 Independence Dr -71.1577 42.2968,BOSTON,Inner Core,130100.0,25025130100.0,West Roxbury,West Roxbury,WEST ROXBURY
175528,607560,2810,3, THREE BEDROOM ONE BATHROOM APARTMENT 19 MT HOOD RD ,3BR/1BA Apartment - 19 Mt Hood Rd, THREE BEDROOM ONE BATHROOM APARTMENT 19 MT HOOD RD ,,6/26/15 21:47,11:25.4,11:25.4,2,39,-71.1423,42.3419,2810 3 3BR 1BA Apartment   19 Mt Hood Rd -71.1423 42.3419,BOSTON,Inner Core,504.0,25025000504.0,Brighton,Brighton,BRIGHTON
175529,607561,2200,1, ONE BEDROOM ONE BATHROOM APARTMENT FOUR UNIVERSITY RD ,1BR/1BA Apartment - 4 University Rd, ONE BEDROOM ONE BATHROOM APARTMENT FOUR UNIVERSITY RD ,,9/4/15 23:18,11:25.4,11:25.4,2,39,-71.1231,42.3731,2200 1 1BR 1BA Apartment   4 University Rd -71.1231 42.3731,CAMBRIDGE,Inner Core,354100.0,25017354100.0,West Cambridge,,
175530,607562,2265,1, ONE BEDROOM ONE BATHROOM APARTMENT 17 WALLACE RD ,1BR/1BA Apartment - 17 Wallace Rd, ONE BEDROOM ONE BATHROOM APARTMENT 17 WALLACE RD ,,8/8/15 3:23,11:25.4,11:25.4,2,39,-71.0355,42.2564,2265 1 1BR 1BA Apartment   17 Wallace Rd -71.0355 42.2564,QUINCY,Regional Urban Centers,418200.0,25021418200.0,Quincy,,
175531,607563,2275,1, ONE BEDROOM ONE BATHROOM APARTMENT 931 MASSACHUSETTS AVE ,1BR/1BA Apartment - 931 Massachusetts Ave, ONE BEDROOM ONE BATHROOM APARTMENT 931 MASSACHUSETTS AVE ,,8/8/15 3:06,11:25.4,11:25.4,2,39,-71.1093,42.3686,2275 1 1BR 1BA Apartment   931 Massachusetts Ave -71.1093 42.3686,CAMBRIDGE,Inner Core,353800.0,25017353800.0,Riverside,,
175532,607564,3500,3, THREE BEDROOM ONE FIVE BATHROOM APARTMENT 72 WALNUT ST ,3BR/1.5BA Apartment - 72 Walnut St, THREE BEDROOM ONE FIVE BATHROOM APARTMENT 72 WALNUT ST ,,11/4/15 0:17,11:25.4,11:25.4,2,39,-71.1181,42.3311,3500 3 3BR 1 5BA Apartment   72 Walnut St -71.1181 42.3311,BROOKLINE,Inner Core,401000.0,25021401000.0,,,
175533,607565,4377,3, THREE BEDROOM ONE BATHROOM APARTMENT 14 STORY ST ,3BR/1BA Apartment - 14 Story St, THREE BEDROOM ONE BATHROOM APARTMENT 14 STORY ST ,,8/8/15 3:24,11:25.5,11:25.5,2,39,-71.1225,42.3737,4377 3 3BR 1BA Apartment   14 Story St -71.1225 42.3737,CAMBRIDGE,Inner Core,354100.0,25017354100.0,West Cambridge,,
175534,607566,1550,2, TWO BEDROOM ONE BATHROOM APARTMENT 19 WARWICK RD ,2BR/1BA Apartment - 19 Warwick Rd, TWO BEDROOM ONE BATHROOM APARTMENT 19 WARWICK RD ,,10/22/15 9:36,11:25.5,11:25.5,2,39,-71.1816,42.3797,1550 2 2BR 1BA Apartment   19 Warwick Rd -71.1816 42.3797,WATERTOWN,Inner Core,370202.0,25017370202.0,,,
175535,607567,2485,1, ONE BEDROOM ONE BATHROOM APARTMENT 175 BLOSSOM ST ,1BR/1BA Apartment - 175 Blossom St, ONE BEDROOM ONE BATHROOM APARTMENT 175 BLOSSOM ST ,,8/18/15 21:43,11:25.5,11:25.5,2,39,-71.0693,42.3642,2485 1 1BR 1BA Apartment   175 Blossom St -71.0693 42.3642,BOSTON,Inner Core,20301.0,25025020301.0,West End,West End,N END/WATERFRONT
175536,607568,1450,0, 0 BEDROOM ONE BATHROOM APARTMENT 533 NEWBURY ST ,0BR/1BA Apartment - 533 Newbury St, 0 BEDROOM ONE BATHROOM APARTMENT 533 NEWBURY ST ,,3/26/15 20:11,11:25.5,11:25.5,2,39,-71.0939,42.3482,1450 0 0BR 1BA Apartment   533 Newbury St -71.0939 42.3482,BOSTON,Inner Core,10104.0,25025010104.0,Fenway,Fenway,FENWAY
175537,607569,3800,2, TWO BEDROOM ONE BATHROOM APARTMENT 437 D ST ,2BR/1BA Apartment - 437 D St, TWO BEDROOM ONE BATHROOM APARTMENT 437 D ST ,,12/4/15 1:23,11:25.5,11:25.5,2,39,-71.0429,42.3452,3800 2 2BR 1BA Apartment   437 D St -71.0429 42.3452,BOSTON,Inner Core,60600.0,25025060600.0,South Boston Waterfront,South Boston Waterfront,SEAPORT FT PT
175538,607570,2800,3, THREE BEDROOM ONE BATHROOM APARTMENT 97B CALUMET ST ,3BR/1BA Apartment - 97B Calumet St, THREE BEDROOM ONE BATHROOM APARTMENT 97B CALUMET ST ,,9/4/15 22:52,11:25.5,11:25.5,2,39,-71.1036,42.3311,2800 3 3BR 1BA Apartment   97B Calumet St -71.1036 42.3311,BOSTON,Inner Core,80900.0,25025080900.0,Mission Hill,Mission Hill,MISSION HILL
175539,607571,2200,2, TWO BEDROOM TWO BATHROOM APARTMENT TWO CITYVIEW LN ,2BR/2BA Apartment - 2 Cityview Ln, TWO BEDROOM TWO BATHROOM APARTMENT TWO CITYVIEW LN ,,8/8/15 4:43,11:25.5,11:25.5,2,39,-71.0192,42.2495,2200 2 2BR 2BA Apartment   2 Cityview Ln -71.0192 42.2495,QUINCY,Regional Urban Centers,418101.0,25021418101.0,Quincy,,
175540,607572,2000,3, THREE BEDROOM ONE BATHROOM APARTMENT 28 TEMPLE ST ,3BR/1BA Apartment - 28 Temple St, THREE BEDROOM ONE BATHROOM APARTMENT 28 TEMPLE ST ,,10/10/15 1:10,11:25.5,11:25.5,2,39,-71.0928,42.3935,2000 3 3BR 1BA Apartment   28 Temple St -71.0928 42.3935,SOMERVILLE,Inner Core,350104.0,25017350104.0,Ten Hills,,
175541,607573,2300,1, ONE BEDROOM ONE BATHROOM APARTMENT 652 MASSACHUSETTS AVE ,1BR/1BA Apartment - 652 Massachusetts Ave, ONE BEDROOM ONE BATHROOM APARTMENT 652 MASSACHUSETTS AVE ,,10/24/15 0:47,11:25.5,11:25.5,2,39,-71.0764,42.3363,2300 1 1BR 1BA Apartment   652 Massachusetts Ave -71.0764 42.3363,BOSTON,Inner Core,71101.0,25025071101.0,South End,South End,SOUTH END
175542,607574,1420,0, 0 BEDROOM ONE BATHROOM APARTMENT 1193 COMMONWEALTH AVENUE ,0BR/1BA Apartment - 1193 Commonwealth Avenue, 0 BEDROOM ONE BATHROOM APARTMENT 1193 COMMONWEALTH AVENUE ,,3/26/15 20:13,11:25.5,11:25.5,2,39,-71.1294,42.3509,1420 0 0BR 1BA Apartment   1193 Commonwealth Avenue -71.1294 42.3509,BOSTON,Inner Core,703.0,25025000703.0,Allston,Allston,BRIGHTON
175543,607575,2000,1, ONE BEDROOM ONE BATHROOM APARTMENT 33 CONCORD AVE ,1BR/1BA Apartment - 33 Concord Ave, ONE BEDROOM ONE BATHROOM APARTMENT 33 CONCORD AVE ,,11/20/15 2:42,11:25.5,11:25.5,2,39,-71.1263,42.38,2000 1 1BR 1BA Apartment   33 Concord Ave -71.1263 42.38,CAMBRIDGE,Inner Core,354100.0,25017354100.0,Neighborhood Nine,,
175544,607576,2200,2, TWO BEDROOM TWO BATHROOM APARTMENT 151 COOLIDGE AVE ,2BR/2BA Apartment - 151 Coolidge Ave, TWO BEDROOM TWO BATHROOM APARTMENT 151 COOLIDGE AVE ,,11/16/15 0:51,11:25.5,11:25.5,2,39,-71.1475,42.3652,2200 2 2BR 2BA Apartment   151 Coolidge Ave -71.1475 42.3652,WATERTOWN,Inner Core,370300.0,25017370300.0,,,
175545,607577,5500,6, SIX BEDROOM TWO FIVE BATHROOM APARTMENT 103 BROWNE ST ,6BR/2.5BA Apartment - 103 Browne St, SIX BEDROOM TWO FIVE BATHROOM APARTMENT 103 BROWNE ST ,,10/4/15 2:00,11:25.5,11:25.5,2,39,-71.1194,42.3464,5500 6 6BR 2 5BA Apartment   103 Browne St -71.1194 42.3464,BROOKLINE,Inner Core,400200.0,25021400200.0,,,
175546,607578,4000,3, THREE BEDROOM ONE BATHROOM APARTMENT 72 REVERE ST ,3BR/1BA Apartment - 72 Revere St, THREE BEDROOM ONE BATHROOM APARTMENT 72 REVERE ST ,,11/13/15 12:02,11:25.5,11:25.5,2,39,-71.069,42.3595,4000 3 3BR 1BA Apartment   72 Revere St -71.069 42.3595,BOSTON,Inner Core,20101.0,25025020101.0,Beacon Hill,Beacon Hill,BACK BAY B HILL
175547,607579,3700,2, TWO BEDROOM TWO BATHROOM APARTMENT 112 W 9TH ST ,2BR/2BA Apartment - 112 W 9th St, TWO BEDROOM TWO BATHROOM APARTMENT 112 W 9TH ST ,,11/15/15 1:36,11:25.5,11:25.5,2,39,-71.0547,42.3352,3700 2 2BR 2BA Apartment   112 W 9th St -71.0547 42.3352,BOSTON,Inner Core,60800.0,25025060800.0,South Boston,South Boston,ANDREWS SQ
175548,607580,3995,3, THREE BEDROOM ONE BATHROOM APARTMENT 452 PARK DR ,3BR/1BA Apartment - 452 Park Dr, THREE BEDROOM ONE BATHROOM APARTMENT 452 PARK DR ,,3/26/15 20:19,11:25.5,11:25.5,2,39,-71.1046,42.3457,3995 3 3BR 1BA Apartment   452 Park Dr -71.1046 42.3457,BOSTON,Inner Core,10204.0,25025010204.0,Fenway,Fenway,FENWAY
175549,607581,2500,1, ONE BEDROOM ONE BATHROOM APARTMENT 538 E BROADWAY ,1BR/1BA Apartment - 538 E Broadway, ONE BEDROOM ONE BATHROOM APARTMENT 538 E BROADWAY ,,8/8/15 5:38,11:25.5,11:25.5,2,39,-71.0428,42.3358,2500 1 1BR 1BA Apartment   538 E Broadway -71.0428 42.3358,BOSTON,Inner Core,60501.0,25025060501.0,South Boston,South Boston,SOUTH BOSTON
175550,607582,3180,1, ONE BEDROOM ONE BATHROOM APARTMENT 221 MASSACHUSETTS AVENUE ,1BR/1BA Apartment - 221 Massachusetts Avenue, ONE BEDROOM ONE BATHROOM APARTMENT 221 MASSACHUSETTS AVENUE ,,10/20/15 16:45,11:25.5,11:25.5,2,39,-71.0865,42.3441,3180 1 1BR 1BA Apartment   221 Massachusetts Avenue -71.0865 42.3441,BOSTON,Inner Core,10403.0,25025010403.0,Fenway,Fenway,FENWAY
175551,607583,5500,5, FIVE BEDROOM TWO BATHROOM APARTMENT THREE AYR RD ,5BR/2BA Apartment - 3 Ayr Rd, FIVE BEDROOM TWO BATHROOM APARTMENT THREE AYR RD ,,6/26/15 21:50,11:25.5,11:25.5,2,39,-71.1491,42.337,5500 5 5BR 2BA Apartment   3 Ayr Rd -71.1491 42.337,BOSTON,Inner Core,502.0,25025000502.0,Brighton,Brighton,BRIGHTON
175552,607584,1978,2, TWO BEDROOM TWO BATHROOM APARTMENT 500 MALDEN ST ,2BR/2BA Apartment - 500 Malden St, TWO BEDROOM TWO BATHROOM APARTMENT 500 MALDEN ST ,,8/8/15 4:48,11:25.5,11:25.5,2,39,-71.0202,42.4253,1978 2 2BR 2BA Apartment   500 Malden St -71.0202 42.4253,REVERE,Inner Core,170300.0,25025170300.0,,,
175553,607585,2700,3, THREE BEDROOM ONE BATHROOM APARTMENT 1100 BEACON ST ,3BR/1BA Apartment - 1100 Beacon St, THREE BEDROOM ONE BATHROOM APARTMENT 1100 BEACON ST ,,9/18/15 1:29,11:25.5,11:25.5,2,39,-71.1112,42.3452,2700 3 3BR 1BA Apartment   1100 Beacon St -71.1112 42.3452,BROOKLINE,Inner Core,400100.0,25021400100.0,,,
175554,607586,1800,0, 0 BEDROOM ONE BATHROOM APARTMENT 204 HEMENWAY ST ,0BR/1BA Apartment - 204 Hemenway St, 0 BEDROOM ONE BATHROOM APARTMENT 204 HEMENWAY ST ,,3/26/15 20:10,11:29.2,11:29.2,2,39,-71.0912,42.3405,1800 0 0BR 1BA Apartment   204 Hemenway St -71.0912 42.3405,BOSTON,Inner Core,10404.0,25025010404.0,Fenway,Fenway,FENWAY
175555,607587,2700,1, ONE BEDROOM ONE BATHROOM APARTMENT 315 ONE ST ,1BR/1BA Apartment - 315 A St, ONE BEDROOM ONE BATHROOM APARTMENT 315 ONE ST ,,8/8/15 22:04,11:29.2,11:29.2,2,39,-71.0497,42.3487,2700 1 1BR 1BA Apartment   315 A St -71.0497 42.3487,BOSTON,Inner Core,61200.0,25025061200.0,South Boston,South Boston Waterfront,SEAPORT FT PT
175556,607588,2800,4, FOUR BEDROOM ONE BATHROOM APARTMENT THREE OAKLAND PL ,4BR/1BA Apartment - 3 Oakland Pl, FOUR BEDROOM ONE BATHROOM APARTMENT THREE OAKLAND PL ,,9/27/15 22:07,11:29.2,11:29.2,2,39,-71.1577,42.3509,2800 4 4BR 1BA Apartment   3 Oakland Pl -71.1577 42.3509,BOSTON,Inner Core,202.0,25025000202.0,Brighton,Brighton,BRIGHTON
175557,607589,1900,2, TWO BEDROOM ONE BATHROOM APARTMENT 520 CAMBRIDGE ST ,2BR/1BA Apartment - 520 Cambridge St, TWO BEDROOM ONE BATHROOM APARTMENT 520 CAMBRIDGE ST ,,3/26/15 20:22,11:29.2,11:29.2,2,39,-71.1388,42.3531,1900 2 2BR 1BA Apartment   520 Cambridge St -71.1388 42.3531,BOSTON,Inner Core,601.0,25025000601.0,Brighton,Allston,BRIGHTON
175558,607590,3200,2, TWO BEDROOM ONE BATHROOM APARTMENT 259 BEACON ST ,2BR/1BA Apartment - 259 Beacon St, TWO BEDROOM ONE BATHROOM APARTMENT 259 BEACON ST ,,8/8/15 3:13,11:29.2,11:29.2,2,39,-71.0795,42.3535,3200 2 2BR 1BA Apartment   259 Beacon St -71.0795 42.3535,BOSTON,Inner Core,10801.0,25025010801.0,Back Bay,Back Bay,BACK BAY B HILL
175559,607591,3600,2, TWO BEDROOM ONE BATHROOM APARTMENT 451 PARK DR ,2BR/1BA Apartment - 451 Park Dr, TWO BEDROOM ONE BATHROOM APARTMENT 451 PARK DR ,,11/26/15 4:46,11:29.2,11:29.2,2,39,-71.1044,42.3457,3600 2 2BR 1BA Apartment   451 Park Dr -71.1044 42.3457,BOSTON,Inner Core,10204.0,25025010204.0,Fenway,Fenway,FENWAY
175560,607592,2800,2, TWO BEDROOM ONE BATHROOM APARTMENT 18 GARDEN ST ,2BR/1BA Apartment - 18 Garden St, TWO BEDROOM ONE BATHROOM APARTMENT 18 GARDEN ST ,,11/5/15 4:49,11:29.2,11:29.2,2,39,-71.0668,42.3608,2800 2 2BR 1BA Apartment   18 Garden St -71.0668 42.3608,BOSTON,Inner Core,20200.0,25025020200.0,Beacon Hill,Beacon Hill,BACK BAY B HILL
175561,607593,1900,2, TWO BEDROOM ONE BATHROOM APARTMENT 32 JUNIPER ST ,2BR/1BA Apartment - 32 Juniper St, TWO BEDROOM ONE BATHROOM APARTMENT 32 JUNIPER ST ,,9/10/15 9:17,11:29.2,11:29.2,2,39,-71.1162,42.331,1900 2 2BR 1BA Apartment   32 Juniper St -71.1162 42.331,BROOKLINE,Inner Core,400900.0,25021400900.0,,,
175562,607594,2200,2, TWO BEDROOM ONE BATHROOM APARTMENT 1570 MASSACHUSETTS AVE ,2BR/1BA Apartment - 1570 Massachusetts Ave, TWO BEDROOM ONE BATHROOM APARTMENT 1570 MASSACHUSETTS AVE ,,11/11/15 17:08,11:29.2,11:29.2,2,39,-71.1206,42.3787,2200 2 2BR 1BA Apartment   1570 Massachusetts Ave -71.1206 42.3787,CAMBRIDGE,Inner Core,354000.0,25017354000.0,Neighborhood Nine,,
175563,607595,4400,4, FOUR BEDROOM TWO BATHROOM APARTMENT 79 JOSEPHINE AVE ,4BR/2BA Apartment - 79 Josephine Ave, FOUR BEDROOM TWO BATHROOM APARTMENT 79 JOSEPHINE AVE ,,10/17/15 13:55,11:29.2,11:29.2,2,39,-71.1131,42.3979,4400 4 4BR 2BA Apartment   79 Josephine Ave -71.1131 42.3979,SOMERVILLE,Inner Core,350400.0,25017350400.0,Powder House,,
175564,607596,1990,2, TWO BEDROOM ONE BATHROOM APARTMENT 36 HALL ST ,2BR/1BA Apartment - 36 Hall St, TWO BEDROOM ONE BATHROOM APARTMENT 36 HALL ST ,,10/24/15 3:47,11:29.2,11:29.2,2,39,-71.1132,42.305,1990 2 2BR 1BA Apartment   36 Hall St -71.1132 42.305,BOSTON,Inner Core,120201.0,25025120201.0,Jamaica Plain,Jamaica Plain,FOREST HILLS
175565,607597,3250,1, ONE BEDROOM ONE FIVE BATHROOM APARTMENT 33 POND AVE ,1BR/1.5BA Apartment - 33 Pond Ave, ONE BEDROOM ONE FIVE BATHROOM APARTMENT 33 POND AVE ,,8/8/15 3:33,11:29.2,11:29.2,2,39,-71.1141,42.3312,3250 1 1BR 1 5BA Apartment   33 Pond Ave -71.1141 42.3312,BROOKLINE,Inner Core,400900.0,25021400900.0,,,
175566,607598,2775,1, ONE BEDROOM TWO BATHROOM APARTMENT ,1BR/2BA Apartment, ONE BEDROOM TWO BATHROOM APARTMENT ,,3/28/15 1:24,11:29.3,11:29.3,2,39,-71.052997,42.3538735,2775 1 1BR 2BA Apartment -71.052997 42.3538735,BOSTON,Inner Core,70101.0,25025070101.0,Downtown,Downtown,CHINATOWN/FINANCIAL
175567,607599,2700,1, ONE BEDROOM ONE BATHROOM APARTMENT 477 BEACON ST ,1BR/1BA Apartment - 477 Beacon St, ONE BEDROOM ONE BATHROOM APARTMENT 477 BEACON ST ,,8/8/15 6:07,11:29.3,11:29.3,2,39,-71.0889,42.351,2700 1 1BR 1BA Apartment   477 Beacon St -71.0889 42.351,BOSTON,Inner Core,10802.0,25025010802.0,Back Bay,Back Bay,BACK BAY B HILL
175568,607600,3100,1, ONE BEDROOM ONE FIVE BATHROOM APARTMENT 1501 COMMONWEALTH AVENUE ,1BR/1.5BA Apartment - 1501 Commonwealth Avenue, ONE BEDROOM ONE FIVE BATHROOM APARTMENT 1501 COMMONWEALTH AVENUE ,,10/31/15 23:15,11:29.3,11:29.3,2,39,-71.1414,42.3475,3100 1 1BR 1 5BA Apartment   1501 Commonwealth Avenue -71.1414 42.3475,BOSTON,Inner Core,602.0,25025000602.0,Brighton,Brighton,BRIGHTON
175569,607601,3500,3, THREE BEDROOM TWO BATHROOM APARTMENT 238 LEXINGTON AVE ,3BR/2BA Apartment - 238 Lexington Ave, THREE BEDROOM TWO BATHROOM APARTMENT 238 LEXINGTON AVE ,,11/23/15 21:50,11:29.3,11:29.3,2,39,-71.1421,42.3824,3500 3 3BR 2BA Apartment   238 Lexington Ave -71.1421 42.3824,CAMBRIDGE,Inner Core,354300.0,25017354300.0,West Cambridge,,
175570,607602,3424,2, TWO BEDROOM TWO BATHROOM APARTMENT 285 THIRD ST ,2BR/2BA Apartment - 285 Third St, TWO BEDROOM TWO BATHROOM APARTMENT 285 THIRD ST ,,8/8/15 5:31,11:29.3,11:29.3,2,39,-71.0831,42.365,3424 2 2BR 2BA Apartment   285 Third St -71.0831 42.365,CAMBRIDGE,Inner Core,352300.0,25017352300.0,East Cambridge,,
175571,607603,2375,2, TWO BEDROOM ONE BATHROOM APARTMENT 176 THORNTON RD ,2BR/1BA Apartment - 176 Thornton Rd, TWO BEDROOM ONE BATHROOM APARTMENT 176 THORNTON RD ,,8/8/15 3:08,11:29.3,11:29.3,2,39,-71.1557,42.2971,2375 2 2BR 1BA Apartment   176 Thornton Rd -71.1557 42.2971,BOSTON,Inner Core,130100.0,25025130100.0,West Roxbury,West Roxbury,WEST ROXBURY
175572,607604,3019,0, 0 BEDROOM ONE BATHROOM APARTMENT 315 ONE ST ,0BR/1BA Apartment - 315 A St, 0 BEDROOM ONE BATHROOM APARTMENT 315 ONE ST ,,8/8/15 4:33,11:29.3,11:29.3,2,39,-71.0497,42.3487,3019 0 0BR 1BA Apartment   315 A St -71.0497 42.3487,BOSTON,Inner Core,61200.0,25025061200.0,South Boston,South Boston Waterfront,SEAPORT FT PT
175573,607605,5200,3, THREE BEDROOM TWO BATHROOM APARTMENT 220 HUNTINGTON AVE ,3BR/2BA Apartment - 220 Huntington Ave, THREE BEDROOM TWO BATHROOM APARTMENT 220 HUNTINGTON AVE ,,8/8/15 3:05,11:29.3,11:29.3,2,39,-71.084,42.3433,5200 3 3BR 2BA Apartment   220 Huntington Ave -71.084 42.3433,BOSTON,Inner Core,10500.0,25025010500.0,Back Bay,Back Bay,BACK BAY B HILL
175574,607606,1595,0, 0 BEDROOM ONE BATHROOM APARTMENT 171 HEMENWAY ST ,0BR/1BA Apartment - 171 Hemenway St, 0 BEDROOM ONE BATHROOM APARTMENT 171 HEMENWAY ST ,,3/26/15 20:10,11:29.3,11:29.3,2,39,-71.0912,42.3413,1595 0 0BR 1BA Apartment   171 Hemenway St -71.0912 42.3413,BOSTON,Inner Core,10405.0,25025010405.0,Fenway,Fenway,FENWAY
175575,607607,2000,1, ONE BEDROOM ONE BATHROOM APARTMENT 123 SEWALL AVE ,1BR/1BA Apartment - 123 Sewall Ave, ONE BEDROOM ONE BATHROOM APARTMENT 123 SEWALL AVE ,,9/12/15 22:40,11:29.3,11:29.3,2,39,-71.1153,42.3419,2000 1 1BR 1BA Apartment   123 Sewall Ave -71.1153 42.3419,BROOKLINE,Inner Core,400100.0,25021400100.0,,,
175576,607608,2650,2, TWO BEDROOM TWO BATHROOM APARTMENT 625 MCGRATH HWY ,2BR/2BA Apartment - 625 McGrath Hwy, TWO BEDROOM TWO BATHROOM APARTMENT 625 MCGRATH HWY ,,8/8/15 5:29,11:29.3,11:29.3,2,39,-71.089,42.3882,2650 2 2BR 2BA Apartment   625 McGrath Hwy -71.089 42.3882,SOMERVILLE,Inner Core,351403.0,25017351403.0,East Somerville,,
175577,607609,2328,1, ONE BEDROOM ONE BATHROOM APARTMENT 50 W BROADWAY ,1BR/1BA Apartment - 50 W Broadway, ONE BEDROOM ONE BATHROOM APARTMENT 50 W BROADWAY ,,8/8/15 5:15,11:29.3,11:29.3,2,39,-71.0561,42.3423,2328 1 1BR 1BA Apartment   50 W Broadway -71.0561 42.3423,BOSTON,Inner Core,61200.0,25025061200.0,South Boston,South Boston,SEAPORT FT PT
175578,607610,3000,2, TWO BEDROOM ONE BATHROOM APARTMENT 206 NORTHAMPTON ST ,2BR/1BA Apartment - 206 Northampton St, TWO BEDROOM ONE BATHROOM APARTMENT 206 NORTHAMPTON ST ,,8/8/15 5:27,11:29.3,11:29.3,2,39,-71.0801,42.3377,3000 2 2BR 1BA Apartment   206 Northampton St -71.0801 42.3377,BOSTON,Inner Core,70900.0,25025070900.0,South End,Roxbury,SOUTH END
175579,607611,3200,4, FOUR BEDROOM TWO BATHROOM APARTMENT 157 THORNDIKE ST ,4BR/2BA Apartment - 157 Thorndike St, FOUR BEDROOM TWO BATHROOM APARTMENT 157 THORNDIKE ST ,,8/8/15 3:56,11:29.3,11:29.3,2,39,-71.1263,42.3491,3200 4 4BR 2BA Apartment   157 Thorndike St -71.1263 42.3491,BROOKLINE,Inner Core,400300.0,25021400300.0,,,
175580,607612,2450,1, ONE BEDROOM ONE BATHROOM APARTMENT 520 BEACON ST ,1BR/1BA Apartment - 520 Beacon St, ONE BEDROOM ONE BATHROOM APARTMENT 520 BEACON ST ,,11/4/15 0:49,11:29.3,11:29.3,2,39,-71.0906,42.3507,2450 1 1BR 1BA Apartment   520 Beacon St -71.0906 42.3507,BOSTON,Inner Core,10104.0,25025010104.0,Fenway,Fenway,BACK BAY B HILL
175581,607613,2800,3, THREE BEDROOM ONE BATHROOM APARTMENT 109 HEATH ST ,3BR/1BA Apartment - 109 Heath St, THREE BEDROOM ONE BATHROOM APARTMENT 109 HEATH ST ,,10/17/15 14:04,11:29.3,11:29.3,2,39,-71.1026,42.3263,2800 3 3BR 1BA Apartment   109 Heath St -71.1026 42.3263,BOSTON,Inner Core,81200.0,25025081200.0,Jamaica Plain,Jamaica Plain,JP PONDSIDE
175582,607614,1650,1, ONE BEDROOM ONE BATHROOM APARTMENT 71 HARVARD AVE ,1BR/1BA Apartment - 71 Harvard Ave, ONE BEDROOM ONE BATHROOM APARTMENT 71 HARVARD AVE ,,3/26/15 20:10,11:29.3,11:29.3,2,39,-71.1323,42.3538,1650 1 1BR 1BA Apartment   71 Harvard Ave -71.1323 42.3538,BOSTON,Inner Core,802.0,25025000802.0,Allston,Allston,ALLSTON
175583,607615,1575,1, ONE BEDROOM ONE BATHROOM APARTMENT 74 BRAINERD RD ,1BR/1BA Apartment - 74 Brainerd Rd, ONE BEDROOM ONE BATHROOM APARTMENT 74 BRAINERD RD ,,10/4/15 1:23,11:29.3,11:29.3,2,39,-71.1337,42.3473,1575 1 1BR 1BA Apartment   74 Brainerd Rd -71.1337 42.3473,BOSTON,Inner Core,704.0,25025000704.0,Allston,Allston,BRIGHTON
175584,607616,1675,1, ONE BEDROOM ONE BATHROOM APARTMENT 67 HARVARD AVE ,1BR/1BA Apartment - 67 Harvard Ave, ONE BEDROOM ONE BATHROOM APARTMENT 67 HARVARD AVE ,,3/26/15 20:09,11:29.3,11:29.3,2,39,-71.1324,42.354,1675 1 1BR 1BA Apartment   67 Harvard Ave -71.1324 42.354,BOSTON,Inner Core,802.0,25025000802.0,Allston,Allston,ALLSTON
175585,607617,1600,1, ONE BEDROOM ONE BATHROOM APARTMENT 76 HARVARD AVE ,1BR/1BA Apartment - 76 Harvard Ave, ONE BEDROOM ONE BATHROOM APARTMENT 76 HARVARD AVE ,,10/14/15 3:46,11:29.3,11:29.3,2,39,-71.1322,42.3536,1600 1 1BR 1BA Apartment   76 Harvard Ave -71.1322 42.3536,BOSTON,Inner Core,802.0,25025000802.0,Allston,Allston,ALLSTON
175586,607618,1950,0, 0 BEDROOM ONE BATHROOM APARTMENT 401 MT VERNON ST ,0BR/1BA Apartment - 401 Mt Vernon St, 0 BEDROOM ONE BATHROOM APARTMENT 401 MT VERNON ST ,,11/15/15 1:35,11:29.3,11:29.3,2,39,-71.0406,42.3165,1950 0 0BR 1BA Apartment   401 Mt Vernon St -71.0406 42.3165,BOSTON,Inner Core,90901.0,25025090901.0,Dorchester,Dorchester,UPHAMS SAVIN
175587,607619,3000,3, THREE BEDROOM ONE BATHROOM APARTMENT 108 WINTHROP RD ,3BR/1BA Apartment - 108 Winthrop Rd, THREE BEDROOM ONE BATHROOM APARTMENT 108 WINTHROP RD ,,3/26/15 20:20,11:29.3,11:29.3,2,39,-71.1326,42.3371,3000 3 3BR 1BA Apartment   108 Winthrop Rd -71.1326 42.3371,BROOKLINE,Inner Core,400500.0,25021400500.0,,,
175588,607620,3400,1, ONE BEDROOM ONE FIVE BATHROOM APARTMENT 364 CONGRESS ST ,1BR/1.5BA Apartment - 364 Congress St, ONE BEDROOM ONE FIVE BATHROOM APARTMENT 364 CONGRESS ST ,,10/18/15 0:11,11:29.4,11:29.4,2,39,-71.0481,42.3503,3400 1 1BR 1 5BA Apartment   364 Congress St -71.0481 42.3503,BOSTON,Inner Core,60600.0,25025060600.0,South Boston Waterfront,South Boston Waterfront,SEAPORT FT PT
175590,607622,2276,0, 0 BEDROOM ONE BATHROOM APARTMENT 22 WATER ST ,0BR/1BA Apartment - 22 Water St, 0 BEDROOM ONE BATHROOM APARTMENT 22 WATER ST ,,10/17/15 14:06,11:29.4,11:29.4,2,39,-71.0779,42.3726,2276 0 0BR 1BA Apartment   22 Water St -71.0779 42.3726,CAMBRIDGE,Inner Core,352101.0,25017352101.0,East Cambridge,,
175591,607623,3400,4, FOUR BEDROOM TWO BATHROOM APARTMENT 25 ASHFORD ST ,4BR/2BA Apartment - 25 Ashford St, FOUR BEDROOM TWO BATHROOM APARTMENT 25 ASHFORD ST ,,8/8/15 6:40,11:29.4,11:29.4,2,39,-71.1284,42.3542,3400 4 4BR 2BA Apartment   25 Ashford St -71.1284 42.3542,BOSTON,Inner Core,802.0,25025000802.0,Allston,Allston,ALLSTON
175592,607624,4500,1, ONE BEDROOM ONE FIVE BATHROOM APARTMENT 85 E INDIA ROW ,1BR/1.5BA Apartment - 85 E India Row, ONE BEDROOM ONE FIVE BATHROOM APARTMENT 85 E INDIA ROW ,,8/8/15 7:04,11:29.4,11:29.4,2,39,-71.0498,42.358,4500 1 1BR 1 5BA Apartment   85 E India Row -71.0498 42.358,BOSTON,Inner Core,30300.0,25025030300.0,Downtown,Downtown,N END/WATERFRONT
175593,607625,1325,0, 0 BEDROOM ONE BATHROOM APARTMENT 220 KELTON ST ,0BR/1BA Apartment - 220 Kelton St, 0 BEDROOM ONE BATHROOM APARTMENT 220 KELTON ST ,,9/29/15 23:33,11:29.4,11:29.4,2,39,-71.1369,42.3471,1325 0 0BR 1BA Apartment   220 Kelton St -71.1369 42.3471,BOSTON,Inner Core,701.0,25025000701.0,Brighton,Allston,BRIGHTON
175594,607626,2000,2, TWO BEDROOM TWO BATHROOM APARTMENT 12 9TH ST ,2BR/2BA Apartment - 12 9th St, TWO BEDROOM TWO BATHROOM APARTMENT 12 9TH ST ,,11/26/15 1:01,11:29.4,11:29.4,2,39,-71.0801,42.4056,2000 2 2BR 2BA Apartment   12 9th St -71.0801 42.4056,MEDFORD,Inner Core,339801.0,25017339801.0,,,
175595,607627,2300,4, FOUR BEDROOM ONE BATHROOM APARTMENT 1088 SARATOGA ST ,4BR/1BA Apartment - 1088 Saratoga St, FOUR BEDROOM ONE BATHROOM APARTMENT 1088 SARATOGA ST ,,10/24/15 1:15,11:29.4,11:29.4,2,39,-71.0032,42.3855,2300 4 4BR 1BA Apartment   1088 Saratoga St -71.0032 42.3855,BOSTON,Inner Core,51101.0,25025051101.0,East Boston,East Boston,ORIENT HEIGHTS
175596,607628,2795,3, THREE BEDROOM ONE BATHROOM APARTMENT 130 ENGLEWOOD AVE ,3BR/1BA Apartment - 130 Englewood Ave, THREE BEDROOM ONE BATHROOM APARTMENT 130 ENGLEWOOD AVE ,,8/8/15 4:23,11:29.4,11:29.4,2,39,-71.1511,42.3372,2795 3 3BR 1BA Apartment   130 Englewood Ave -71.1511 42.3372,BOSTON,Inner Core,502.0,25025000502.0,Brighton,Brighton,BRIGHTON
175597,607629,4150,4, FOUR BEDROOM TWO BATHROOM APARTMENT 64 HILLSIDE ST ,4BR/2BA Apartment - 64 Hillside St, FOUR BEDROOM TWO BATHROOM APARTMENT 64 HILLSIDE ST ,,10/17/15 14:04,11:29.4,11:29.4,2,39,-71.102,42.3301,4150 4 4BR 2BA Apartment   64 Hillside St -71.102 42.3301,BOSTON,Inner Core,81001.0,25025081001.0,Mission Hill,Mission Hill,MISSION HILL
175598,607630,3775,1, ONE BEDROOM ONE BATHROOM APARTMENT 26 GARDEN ST ,1BR/1BA Apartment - 26 Garden St, ONE BEDROOM ONE BATHROOM APARTMENT 26 GARDEN ST ,,8/8/15 5:54,11:29.4,11:29.4,2,39,-71.1239,42.3781,3775 1 1BR 1BA Apartment   26 Garden St -71.1239 42.3781,CAMBRIDGE,Inner Core,354100.0,25017354100.0,West Cambridge,,
175599,607631,2700,1, ONE BEDROOM ONE BATHROOM APARTMENT 665 WASHINGTON ST ,1BR/1BA Apartment - 665 Washington St, ONE BEDROOM ONE BATHROOM APARTMENT 665 WASHINGTON ST ,,8/8/15 5:20,11:29.4,11:29.4,2,39,-71.063,42.3518,2700 1 1BR 1BA Apartment   665 Washington St -71.063 42.3518,BOSTON,Inner Core,70101.0,25025070101.0,Downtown,Downtown,CHINATOWN/FINANCIAL
175600,607632,3200,1, ONE BEDROOM ONE BATHROOM APARTMENT 41 CALUMET ST ,1BR/1BA Apartment - 41 Calumet St, ONE BEDROOM ONE BATHROOM APARTMENT 41 CALUMET ST ,,10/4/15 1:33,11:29.4,11:29.4,2,39,-71.1058,42.3326,3200 1 1BR 1BA Apartment   41 Calumet St -71.1058 42.3326,BOSTON,Inner Core,81001.0,25025081001.0,Mission Hill,Mission Hill,MISSION HILL
175601,607633,1650,1, ONE BEDROOM ONE BATHROOM APARTMENT 1322 COMMONWEALTH AVENUE ,1BR/1BA Apartment - 1322 Commonwealth Avenue, ONE BEDROOM ONE BATHROOM APARTMENT 1322 COMMONWEALTH AVENUE ,,11/4/15 0:13,11:29.4,11:29.4,2,39,-71.1347,42.3481,1650 1 1BR 1BA Apartment   1322 Commonwealth Avenue -71.1347 42.3481,BOSTON,Inner Core,704.0,25025000704.0,Allston,Allston,BRIGHTON
175602,607634,3050,4, FOUR BEDROOM ONE BATHROOM APARTMENT 17 CUMMINGS RD ,4BR/1BA Apartment - 17 Cummings Rd, FOUR BEDROOM ONE BATHROOM APARTMENT 17 CUMMINGS RD ,,8/8/15 3:21,11:29.4,11:29.4,2,39,-71.1437,42.3406,3050 4 4BR 1BA Apartment   17 Cummings Rd -71.1437 42.3406,BOSTON,Inner Core,504.0,25025000504.0,Brighton,Brighton,BRIGHTON
175603,607635,1750,1, ONE BEDROOM ONE BATHROOM APARTMENT 315 HUNTINGTON AVE ,1BR/1BA Apartment - 315 Huntington Ave, ONE BEDROOM ONE BATHROOM APARTMENT 315 HUNTINGTON AVE ,,3/26/15 20:10,11:29.4,11:29.4,2,39,-71.0875,42.341,1750 1 1BR 1BA Apartment   315 Huntington Ave -71.0875 42.341,BOSTON,Inner Core,10405.0,25025010405.0,Fenway,Fenway,FENWAY
175604,607636,3900,3, THREE BEDROOM ONE BATHROOM APARTMENT 441 HANOVER ST ,3BR/1BA Apartment - 441 Hanover St, THREE BEDROOM ONE BATHROOM APARTMENT 441 HANOVER ST ,,3/26/15 20:16,11:33.1,11:33.1,2,39,-71.0528,42.3661,3900 3 3BR 1BA Apartment   441 Hanover St -71.0528 42.3661,BOSTON,Inner Core,30500.0,25025030500.0,North End,North End,N END/WATERFRONT
175605,607637,2365,1, ONE BEDROOM ONE BATHROOM APARTMENT 50 LEWIS ST ,1BR/1BA Apartment - 50 Lewis St, ONE BEDROOM ONE BATHROOM APARTMENT 50 LEWIS ST ,,12/2/15 0:14,11:33.1,11:33.1,2,39,-71.041,42.3672,2365 1 1BR 1BA Apartment   50 Lewis St -71.041 42.3672,BOSTON,Inner Core,51200.0,25025051200.0,East Boston,East Boston,EB WATERFRONT
175606,607638,1879,1, ONE BEDROOM ONE BATHROOM APARTMENT ,1BR/1BA Apartment, ONE BEDROOM ONE BATHROOM APARTMENT ,,3/28/15 0:32,11:33.1,11:33.1,2,39,-71.0783843,42.4053262,1879 1 1BR 1BA Apartment -71.0783843 42.4053262,MEDFORD,Inner Core,339801.0,25017339801.0,,,
175607,607639,1665,0, 0 BEDROOM ONE BATHROOM APARTMENT 1163 BOYLSTON ST ,0BR/1BA Apartment - 1163 Boylston St, 0 BEDROOM ONE BATHROOM APARTMENT 1163 BOYLSTON ST ,,3/26/15 20:14,11:33.1,11:33.1,2,39,-71.0934,42.347,1665 0 0BR 1BA Apartment   1163 Boylston St -71.0934 42.347,BOSTON,Inner Core,10203.0,25025010203.0,Fenway,Fenway,FENWAY
175608,607640,1750,1, ONE BEDROOM ONE BATHROOM APARTMENT 550 COLUMBUS AVE ,1BR/1BA Apartment - 550 Columbus Ave, ONE BEDROOM ONE BATHROOM APARTMENT 550 COLUMBUS AVE ,,8/8/15 5:26,11:33.1,11:33.1,2,39,-71.0806,42.3412,1750 1 1BR 1BA Apartment   550 Columbus Ave -71.0806 42.3412,BOSTON,Inner Core,70800.0,25025070800.0,South End,South End,SOUTH END
175609,607641,4000,4, FOUR BEDROOM TWO BATHROOM APARTMENT 143 MARCELLA ST ,4BR/2BA Apartment - 143 Marcella St, FOUR BEDROOM TWO BATHROOM APARTMENT 143 MARCELLA ST ,,8/8/15 5:39,11:33.1,11:33.1,2,39,-71.0964,42.3253,4000 4 4BR 2BA Apartment   143 Marcella St -71.0964 42.3253,BOSTON,Inner Core,81400.0,25025081400.0,Roxbury,Roxbury,HP EGLESTON
175610,607642,1800,0, 0 BEDROOM ONE BATHROOM APARTMENT ONE WINCHESTER ST ,0BR/1BA Apartment - 1 Winchester St, 0 BEDROOM ONE BATHROOM APARTMENT ONE WINCHESTER ST ,,10/31/15 23:51,11:33.1,11:33.1,2,39,-71.1253,42.3414,1800 0 0BR 1BA Apartment   1 Winchester St -71.1253 42.3414,BROOKLINE,Inner Core,400400.0,25021400400.0,,,
175611,607643,3250,3, THREE BEDROOM TWO BATHROOM APARTMENT 101 MONMOUTH ST ,3BR/2BA Apartment - 101 Monmouth St, THREE BEDROOM TWO BATHROOM APARTMENT 101 MONMOUTH ST ,,11/30/15 17:09,11:33.1,11:33.1,2,39,-71.1063,42.3448,3250 3 3BR 2BA Apartment   101 Monmouth St -71.1063 42.3448,BROOKLINE,Inner Core,400100.0,25021400100.0,,,
