,id,ask,bedrooms,title,original_title,cl_title,address,post_at,created_at,updated_at,source_id,survey_id,latitude,longitude,uniqueid,town,comm_type,tract10,ct10_id,neighborhood_01,neighborhood_02,neighborhood_03
175912,607944,1465,1, ONE BEDROOM ONE BATHROOM APARTMENT ONE TOZER RD ,1BR/1BA Apartment - 1 Tozer Rd, ONE BEDROOM ONE BATHROOM APARTMENT ONE TOZER RD ,,8/8/15 3:40,11:56.2,11:56.2,2,39,-70.8861,42.5798,1465 1 1BR 1BA Apartment   1 Tozer Rd -70.8861 42.5798,BEVERLY,Regional Urban Centers,217100.0,25009217100.0,,,
175913,607945,2200,2, TWO BEDROOM ONE BATHROOM APARTMENT 1742 COMMONWEALTH AVENUE ,2BR/1BA Apartment - 1742 Commonwealth Avenue, TWO BEDROOM ONE BATHROOM APARTMENT 1742 COMMONWEALTH AVENUE ,,12/4/15 1:22,11:56.2,11:56.2,2,39,-71.1492,42.3412,2200 2 2BR 1BA Apartment   1742 Commonwealth Avenue -71.1492 42.3412,BOSTON,Inner Core,503.0,25025000503.0,Brighton,Brighton,BRIGHTON
175914,607946,2750,0, 0 BEDROOM ONE BATHROOM APARTMENT 326 DARTMOUTH ST ,0BR/1BA Apartment - 326 Dartmouth St, 0 BEDROOM ONE BATHROOM APARTMENT 326 DARTMOUTH ST ,,8/8/15 3:33,11:56.2,11:56.2,2,39,-71.0787,42.3529,2750 0 0BR 1BA Apartment   326 Dartmouth St -71.0787 42.3529,BOSTON,Inner Core,10801.0,25025010801.0,Back Bay,Back Bay,BACK BAY B HILL
175915,607947,1250,0, 0 BEDROOM ONE BATHROOM APARTMENT HANCOCK ST ,0BR/1BA Apartment - Hancock St, 0 BEDROOM ONE BATHROOM APARTMENT HANCOCK ST ,,12/8/15 2:46,11:56.2,11:56.2,2,39,-71.0633,42.419,1250 0 0BR 1BA Apartment   Hancock St -71.0633 42.419,MALDEN,Inner Core,341400.0,25017341400.0,,,
175916,607948,1680,1, ONE BEDROOM ONE BATHROOM APARTMENT 1185 COMMONWEALTH AVENUE ,1BR/1BA Apartment - 1185 Commonwealth Avenue, ONE BEDROOM ONE BATHROOM APARTMENT 1185 COMMONWEALTH AVENUE ,,3/26/15 20:14,11:56.2,11:56.2,2,39,-71.129,42.3509,1680 1 1BR 1BA Apartment   1185 Commonwealth Avenue -71.129 42.3509,BOSTON,Inner Core,703.0,25025000703.0,Allston,Allston,BRIGHTON
175917,607949,2368,1, ONE BEDROOM ONE BATHROOM APARTMENT 11 CAMELOT CT ,1BR/1BA Apartment - 11 Camelot Ct, ONE BEDROOM ONE BATHROOM APARTMENT 11 CAMELOT CT ,,3/26/15 20:19,11:56.2,11:56.2,2,39,-71.1408,42.3498,2368 1 1BR 1BA Apartment   11 Camelot Ct -71.1408 42.3498,BOSTON,Inner Core,602.0,25025000602.0,Brighton,Brighton,BRIGHTON
175918,607950,2500,2, TWO BEDROOM ONE BATHROOM APARTMENT 15 SHEPHERD AVE ,2BR/1BA Apartment - 15 Shepherd Ave, TWO BEDROOM ONE BATHROOM APARTMENT 15 SHEPHERD AVE ,,12/4/15 1:07,11:56.2,11:56.2,2,39,-71.1092,42.3327,2500 2 2BR 1BA Apartment   15 Shepherd Ave -71.1092 42.3327,BOSTON,Inner Core,81001.0,25025081001.0,Mission Hill,Mission Hill,MISSION HILL
175919,607951,2900,2, TWO BEDROOM ONE BATHROOM APARTMENT FOUR UNIVERSITY RD ,2BR/1BA Apartment - 4 University Rd, TWO BEDROOM ONE BATHROOM APARTMENT FOUR UNIVERSITY RD ,,8/8/15 5:55,11:56.2,11:56.2,2,39,-71.1231,42.3731,2900 2 2BR 1BA Apartment   4 University Rd -71.1231 42.3731,CAMBRIDGE,Inner Core,354100.0,25017354100.0,West Cambridge,,
175920,607952,3200,4, FOUR BEDROOM TWO BATHROOM APARTMENT 20 MADISON ST ,4BR/2BA Apartment - 20 Madison St, FOUR BEDROOM TWO BATHROOM APARTMENT 20 MADISON ST ,,9/7/15 21:42,11:56.3,11:56.3,2,39,-71.0993,42.388,3200 4 4BR 2BA Apartment   20 Madison St -71.0993 42.388,SOMERVILLE,Inner Core,351100.0,25017351100.0,Central Hill,,
175921,607953,1850,3, THREE BEDROOM ONE BATHROOM APARTMENT 16 BOSTON RD ,3BR/1BA Apartment - 16 Boston Rd, THREE BEDROOM ONE BATHROOM APARTMENT 16 BOSTON RD ,,8/24/15 14:28,11:56.3,11:56.3,2,39,-71.5211,42.3045,1850 3 3BR 1BA Apartment   16 Boston Rd -71.5211 42.3045,SOUTHBOROUGH,Maturing Suburbs,741101.0,25027741101.0,,,
175922,607954,2543,1, ONE BEDROOM ONE BATHROOM APARTMENT 100 RIVERS EDGE DR ,1BR/1BA Apartment - 100 Rivers Edge Dr, ONE BEDROOM ONE BATHROOM APARTMENT 100 RIVERS EDGE DR ,,11/9/15 23:34,11:56.3,11:56.3,2,39,-71.0754,42.4096,2543 1 1BR 1BA Apartment   100 Rivers Edge Dr -71.0754 42.4096,MEDFORD,Inner Core,339801.0,25017339801.0,,,
175923,607955,2800,3, THREE BEDROOM TWO BATHROOM APARTMENT ,3BR/2BA Apartment, THREE BEDROOM TWO BATHROOM APARTMENT ,,3/28/15 1:28,11:56.3,11:56.3,2,39,-71.1160543,42.3473408,2800 3 3BR 2BA Apartment -71.1160543 42.3473408,BROOKLINE,Inner Core,400100.0,25021400100.0,,,
175924,607956,4000,4, FOUR BEDROOM TWO BATHROOM APARTMENT 643 E FIFTH ST ,4BR/2BA Apartment - 643 E Fifth St, FOUR BEDROOM TWO BATHROOM APARTMENT 643 E FIFTH ST ,,10/22/15 0:43,11:56.3,11:56.3,2,39,-71.0347,42.3338,4000 4 4BR 2BA Apartment   643 E Fifth St -71.0347 42.3338,BOSTON,Inner Core,60301.0,25025060301.0,South Boston,South Boston,SOUTH BOSTON
175925,607957,3205,2, TWO BEDROOM TWO BATHROOM APARTMENT ONE EMERSON PL ,2BR/2BA Apartment - 1 Emerson Pl, TWO BEDROOM TWO BATHROOM APARTMENT ONE EMERSON PL ,,8/8/15 4:22,11:56.3,11:56.3,2,39,-71.0688,42.3645,3205 2 2BR 2BA Apartment   1 Emerson Pl -71.0688 42.3645,BOSTON,Inner Core,20301.0,25025020301.0,West End,West End,N END/WATERFRONT
175926,607958,4650,2, TWO BEDROOM TWO BATHROOM APARTMENT 660 WASHINGTON ST ,2BR/2BA Apartment - 660 Washington St, TWO BEDROOM TWO BATHROOM APARTMENT 660 WASHINGTON ST ,,9/25/15 21:54,11:56.3,11:56.3,2,39,-71.0627,42.3518,4650 2 2BR 2BA Apartment   660 Washington St -71.0627 42.3518,BOSTON,Inner Core,70101.0,25025070101.0,Downtown,Chinatown,CHINATOWN/FINANCIAL
175927,607959,3475,2, TWO BEDROOM TWO BATHROOM APARTMENT ,2BR/2BA Apartment, TWO BEDROOM TWO BATHROOM APARTMENT ,,10/22/15 13:22,11:56.3,11:56.3,2,39,-71.0835942,42.3388374,3475 2 2BR 2BA Apartment -71.0835942 42.3388374,BOSTON,Inner Core,80601.0,25025080601.0,Roxbury,Roxbury,SOUTH END
175928,607960,1900,2, TWO BEDROOM ONE BATHROOM APARTMENT 22 EDGEBROOK RD ,2BR/1BA Apartment - 22 Edgebrook Rd, TWO BEDROOM ONE BATHROOM APARTMENT 22 EDGEBROOK RD ,,11/15/15 1:32,11:56.3,11:56.3,2,39,-71.1516,42.2933,1900 2 2BR 1BA Apartment   22 Edgebrook Rd -71.1516 42.2933,BOSTON,Inner Core,130100.0,25025130100.0,West Roxbury,West Roxbury,WEST ROXBURY
175929,607961,3400,3, THREE BEDROOM TWO BATHROOM APARTMENT ,3BR/2BA Apartment, THREE BEDROOM TWO BATHROOM APARTMENT ,,3/28/15 1:25,11:56.3,11:56.3,2,39,-71.077672,42.384373,3400 3 3BR 2BA Apartment -71.077672 42.384373,BOSTON,Inner Core,40600.0,25025040600.0,Charlestown,Charlestown,SULLIVAN
175930,607962,2400,3, THREE BEDROOM ONE BATHROOM APARTMENT 73 GORDON ST ,3BR/1BA Apartment - 73 Gordon St, THREE BEDROOM ONE BATHROOM APARTMENT 73 GORDON ST ,,11/23/15 0:28,11:56.3,11:56.3,2,39,-71.13,42.4136,2400 3 3BR 1BA Apartment   73 Gordon St -71.13 42.4136,SOMERVILLE,Inner Core,350700.0,25017350700.0,West Somerville,,
175931,607963,3000,3, THREE BEDROOM TWO BATHROOM APARTMENT 25 MCCULLOUGH RD ,3BR/2BA Apartment - 25 McCullough Rd, THREE BEDROOM TWO BATHROOM APARTMENT 25 MCCULLOUGH RD ,,8/8/15 3:13,11:56.3,11:56.3,2,39,-71.0027,42.4699,3000 3 3BR 2BA Apartment   25 McCullough Rd -71.0027 42.4699,SAUGUS,Maturing Suburbs,208300.0,25009208300.0,,,
175932,607964,1450,1, ONE BEDROOM ONE BATHROOM APARTMENT 120 GLENVILLE AVE ,1BR/1BA Apartment - 120 Glenville Ave, ONE BEDROOM ONE BATHROOM APARTMENT 120 GLENVILLE AVE ,,8/8/15 3:46,11:56.3,11:56.3,2,39,-71.1365,42.3488,1450 1 1BR 1BA Apartment   120 Glenville Ave -71.1365 42.3488,BOSTON,Inner Core,701.0,25025000701.0,Brighton,Allston,BRIGHTON
175933,607965,3200,4, FOUR BEDROOM ONE BATHROOM APARTMENT TEN ASHFORD ST ,4BR/1BA Apartment - 10 Ashford St, FOUR BEDROOM ONE BATHROOM APARTMENT TEN ASHFORD ST ,,10/17/15 13:57,11:56.3,11:56.3,2,39,-71.1295,42.3543,3200 4 4BR 1BA Apartment   10 Ashford St -71.1295 42.3543,BOSTON,Inner Core,802.0,25025000802.0,Allston,Allston,ALLSTON
175934,607966,4250,5, FIVE BEDROOM ONE FIVE BATHROOM APARTMENT EIGHT MURDOCK TERRACE ,5BR/1.5BA Apartment - 8 Murdock Terrace, FIVE BEDROOM ONE FIVE BATHROOM APARTMENT EIGHT MURDOCK TERRACE ,,12/4/15 1:07,11:56.3,11:56.3,2,39,-71.1463,42.352,4250 5 5BR 1 5BA Apartment   8 Murdock Terrace -71.1463 42.352,BOSTON,Inner Core,601.0,25025000601.0,Brighton,Brighton,BRIGHTON
175935,607967,1550,0, 0 BEDROOM ONE BATHROOM APARTMENT 409 HUNTINGTON AVE ,0BR/1BA Apartment - 409 Huntington Ave, 0 BEDROOM ONE BATHROOM APARTMENT 409 HUNTINGTON AVE ,,11/18/15 2:33,11:56.3,11:56.3,2,39,-71.0922,42.3391,1550 0 0BR 1BA Apartment   409 Huntington Ave -71.0922 42.3391,BOSTON,Inner Core,10405.0,25025010405.0,Fenway,Fenway,FENWAY
175936,607968,4900,7, SEVEN BEDROOM TWO BATHROOM APARTMENT 74 CHESTER ST ,7BR/2BA Apartment - 74 Chester St, SEVEN BEDROOM TWO BATHROOM APARTMENT 74 CHESTER ST ,,3/10/15 21:49,11:56.3,11:56.3,2,39,-71.1284,42.3533,4900 7 7BR 2BA Apartment   74 Chester St -71.1284 42.3533,BOSTON,Inner Core,802.0,25025000802.0,Allston,Allston,ALLSTON
175937,607969,2100,3, THREE BEDROOM THREE 0 BATHROOM 1250 SQFT TWO 100 THREE BR ,"Three BR, 3.0 BA, 1250 sqft, $2,100 - Three BR", THREE BEDROOM THREE 0 BATHROOM 1250 SQFT TWO 100 THREE BR ,,12/9/15 17:49,11:56.3,11:56.3,2,39,-71.251043,42.070685,2100 3 Three BR  3 0 BA  1250 sqft   2 100   Three BR -71.251043 42.070685,FOXBOROUGH,Developing Suburbs,410100.0,25021410100.0,,,
175938,607970,2350,2, TWO BEDROOM ONE BATHROOM APARTMENT 1177 COMMONWEALTH AVENUE ,2BR/1BA Apartment - 1177 Commonwealth Avenue, TWO BEDROOM ONE BATHROOM APARTMENT 1177 COMMONWEALTH AVENUE ,,9/29/15 22:51,11:56.3,11:56.3,2,39,-71.1287,42.3508,2350 2 2BR 1BA Apartment   1177 Commonwealth Avenue -71.1287 42.3508,BOSTON,Inner Core,703.0,25025000703.0,Allston,Allston,BRIGHTON
175939,607971,1200,1, ONE BEDROOM ONE BATHROOM APARTMENT SIX TRULL ST ,1BR/1BA Apartment - 6 Trull St, ONE BEDROOM ONE BATHROOM APARTMENT SIX TRULL ST ,,12/4/15 1:43,11:56.3,11:56.3,2,39,-71.0651,42.3125,1200 1 1BR 1BA Apartment   6 Trull St -71.0651 42.3125,BOSTON,Inner Core,91500.0,25025091500.0,Dorchester,Dorchester,UPHAMS SAVIN
175940,607972,3300,4, FOUR BEDROOM TWO BATHROOM APARTMENT 26 MAPLETON ST ,4BR/2BA Apartment - 26 Mapleton St, FOUR BEDROOM TWO BATHROOM APARTMENT 26 MAPLETON ST ,,8/8/15 3:47,11:56.4,11:56.4,2,39,-71.15,42.3521,3300 4 4BR 2BA Apartment   26 Mapleton St -71.15 42.3521,BOSTON,Inner Core,202.0,25025000202.0,Brighton,Brighton,BRIGHTON
175941,607973,2920,1, ONE BEDROOM ONE BATHROOM APARTMENT 110 BEVERLY ST ,1BR/1BA Apartment - 110 Beverly St, ONE BEDROOM ONE BATHROOM APARTMENT 110 BEVERLY ST ,,8/8/15 5:33,11:56.4,11:56.4,2,39,-71.06,42.3654,2920 1 1BR 1BA Apartment   110 Beverly St -71.06 42.3654,BOSTON,Inner Core,20303.0,25025020303.0,West End,Downtown,N END/WATERFRONT
175942,607974,4600,3, THREE BEDROOM ONE BATHROOM APARTMENT 84 FENWAY ,3BR/1BA Apartment - 84 Fenway, THREE BEDROOM ONE BATHROOM APARTMENT 84 FENWAY ,,3/26/15 20:12,11:56.4,11:56.4,2,39,-71.091,42.3423,4600 3 3BR 1BA Apartment   84 Fenway -71.091 42.3423,BOSTON,Inner Core,10405.0,25025010405.0,Fenway,Fenway,FENWAY
175943,607975,4400,2, TWO BEDROOM ONE BATHROOM APARTMENT 28 EXETER ST ,2BR/1BA Apartment - 28 Exeter St, TWO BEDROOM ONE BATHROOM APARTMENT 28 EXETER ST ,,8/8/15 5:05,11:56.4,11:56.4,2,39,-71.0797,42.3501,4400 2 2BR 1BA Apartment   28 Exeter St -71.0797 42.3501,BOSTON,Inner Core,10702.0,25025010702.0,Back Bay,Back Bay,BACK BAY B HILL
175944,607976,4500,4, FOUR BEDROOM TWO BATHROOM APARTMENT 46 THOMAS PARK ,4BR/2BA Apartment - 46 Thomas Park, FOUR BEDROOM TWO BATHROOM APARTMENT 46 THOMAS PARK ,,8/11/15 22:08,11:56.4,11:56.4,2,39,-71.047,42.3322,4500 4 4BR 2BA Apartment   46 Thomas Park -71.047 42.3322,BOSTON,Inner Core,60400.0,25025060400.0,South Boston,South Boston,SOUTH BOSTON
175945,607977,1725,1, ONE BEDROOM ONE BATHROOM APARTMENT 125 CHISWICK RD ,1BR/1BA Apartment - 125 Chiswick Rd, ONE BEDROOM ONE BATHROOM APARTMENT 125 CHISWICK RD ,,12/4/15 1:01,11:56.4,11:56.4,2,39,-71.1524,42.3409,1725 1 1BR 1BA Apartment   125 Chiswick Rd -71.1524 42.3409,BOSTON,Inner Core,401.0,25025000401.0,Brighton,Brighton,BRIGHTON
175946,607978,5995,2, TWO BEDROOM TWO FIVE BATHROOM APARTMENT NINE W BROADWAY ,2BR/2.5BA Apartment - 9 W Broadway, TWO BEDROOM TWO FIVE BATHROOM APARTMENT NINE W BROADWAY ,,11/26/15 0:34,11:56.4,11:56.4,2,39,-71.0577,42.3426,5995 2 2BR 2 5BA Apartment   9 W Broadway -71.0577 42.3426,BOSTON,Inner Core,61200.0,25025061200.0,South Boston,South Boston,SEAPORT FT PT
175947,607979,2500,2, TWO BEDROOM ONE BATHROOM APARTMENT 67 PRINCE ST ,2BR/1BA Apartment - 67 Prince St, TWO BEDROOM ONE BATHROOM APARTMENT 67 PRINCE ST ,,11/23/15 0:38,11:56.4,11:56.4,2,39,-71.0551,42.3652,2500 2 2BR 1BA Apartment   67 Prince St -71.0551 42.3652,BOSTON,Inner Core,30400.0,25025030400.0,North End,North End,N END/WATERFRONT
175948,607980,2300,1, ONE BEDROOM ONE BATHROOM APARTMENT 220 HANOVER ST ,1BR/1BA Apartment - 220 Hanover St, ONE BEDROOM ONE BATHROOM APARTMENT 220 HANOVER ST ,,10/17/15 13:55,11:56.4,11:56.4,2,39,-71.0551,42.3631,2300 1 1BR 1BA Apartment   220 Hanover St -71.0551 42.3631,BOSTON,Inner Core,30400.0,25025030400.0,North End,North End,N END/WATERFRONT
175949,607981,2200,2, TWO BEDROOM ONE BATHROOM APARTMENT 1412 COMMONWEALTH AVENUE ,2BR/1BA Apartment - 1412 Commonwealth Avenue, TWO BEDROOM ONE BATHROOM APARTMENT 1412 COMMONWEALTH AVENUE ,,12/8/15 4:48,11:56.4,11:56.4,2,39,-71.1389,42.3485,2200 2 2BR 1BA Apartment   1412 Commonwealth Avenue -71.1389 42.3485,BOSTON,Inner Core,701.0,25025000701.0,Brighton,Allston,BRIGHTON
175950,607982,1765,1, ONE BEDROOM ONE BATHROOM APARTMENT 33 LANCASTER TERRACE ,1BR/1BA Apartment - 33 Lancaster Terrace, ONE BEDROOM ONE BATHROOM APARTMENT 33 LANCASTER TERRACE ,,8/8/15 4:23,11:56.4,11:56.4,2,39,-71.1317,42.3403,1765 1 1BR 1BA Apartment   33 Lancaster Terrace -71.1317 42.3403,BROOKLINE,Inner Core,400400.0,25021400400.0,,,
175951,607983,4000,3, THREE BEDROOM ONE BATHROOM APARTMENT 76 STREET STEPHEN ST ,3BR/1BA Apartment - 76 St Stephen St, THREE BEDROOM ONE BATHROOM APARTMENT 76 STREET STEPHEN ST ,,12/2/15 0:39,11:56.4,11:56.4,2,39,-71.088,42.3416,4000 3 3BR 1BA Apartment   76 St Stephen St -71.088 42.3416,BOSTON,Inner Core,10404.0,25025010404.0,Fenway,Fenway,FENWAY
175952,607984,4100,5, FIVE BEDROOM THREE BATHROOM APARTMENT 84 EUSTON RD ,5BR/3BA Apartment - 84 Euston Rd, FIVE BEDROOM THREE BATHROOM APARTMENT 84 EUSTON RD ,,8/8/15 2:50,11:56.4,11:56.4,2,39,-71.1455,42.3441,4100 5 5BR 3BA Apartment   84 Euston Rd -71.1455 42.3441,BOSTON,Inner Core,401.0,25025000401.0,Brighton,Brighton,BRIGHTON
175953,607985,3200,4, FOUR BEDROOM ONE BATHROOM APARTMENT 478 E 4TH ST ,4BR/1BA Apartment - 478 E 4th St, FOUR BEDROOM ONE BATHROOM APARTMENT 478 E 4TH ST ,,10/16/15 0:18,11:56.4,11:56.4,2,39,-71.046,42.3347,3200 4 4BR 1BA Apartment   478 E 4th St -71.046 42.3347,BOSTON,Inner Core,60400.0,25025060400.0,South Boston,South Boston,SOUTH BOSTON
175954,607986,1650,1, ONE BEDROOM ONE BATHROOM APARTMENT 232 KELTON ST ,1BR/1BA Apartment - 232 Kelton St, ONE BEDROOM ONE BATHROOM APARTMENT 232 KELTON ST ,,8/8/15 6:12,12:00.1,12:00.1,2,39,-71.1364,42.3469,1650 1 1BR 1BA Apartment   232 Kelton St -71.1364 42.3469,BOSTON,Inner Core,701.0,25025000701.0,Brighton,Allston,BRIGHTON
175955,607987,2800,0, 0 BEDROOM ONE BATHROOM APARTMENT 290 BEACON ST ,0BR/1BA Apartment - 290 Beacon St, 0 BEDROOM ONE BATHROOM APARTMENT 290 BEACON ST ,,9/4/15 23:28,12:00.1,12:00.1,2,39,-71.0817,42.353,2800 0 0BR 1BA Apartment   290 Beacon St -71.0817 42.353,BOSTON,Inner Core,10802.0,25025010802.0,Back Bay,Back Bay,BACK BAY B HILL
175956,607988,1650,0, 0 BEDROOM ONE BATHROOM APARTMENT 165 HEMENWAY ST ,0BR/1BA Apartment - 165 Hemenway St, 0 BEDROOM ONE BATHROOM APARTMENT 165 HEMENWAY ST ,,3/26/15 20:10,12:00.1,12:00.1,2,39,-71.0911,42.3414,1650 0 0BR 1BA Apartment   165 Hemenway St -71.0911 42.3414,BOSTON,Inner Core,10405.0,25025010405.0,Fenway,Fenway,FENWAY
175957,607989,1510,1, ONE BEDROOM ONE BATHROOM APARTMENT ,1BR/1BA Apartment, ONE BEDROOM ONE BATHROOM APARTMENT ,,3/28/15 1:28,12:00.1,12:00.1,2,39,-70.9901335,42.5224513,1510 1 1BR 1BA Apartment -70.9901335 42.5224513,PEABODY,Regional Urban Centers,210300.0,25009210300.0,,,
175958,607990,2450,1, ONE BEDROOM ONE BATHROOM APARTMENT ,1BR/1BA Apartment, ONE BEDROOM ONE BATHROOM APARTMENT ,,3/28/15 1:23,12:00.1,12:00.1,2,39,-71.068686,42.337218,2450 1 1BR 1BA Apartment -71.068686 42.337218,BOSTON,Inner Core,71101.0,25025071101.0,South End,South End,SOUTH END
175959,607991,3300,3, THREE BEDROOM ONE BATHROOM APARTMENT 241 FREEMAN ST ,3BR/1BA Apartment - 241 Freeman St, THREE BEDROOM ONE BATHROOM APARTMENT 241 FREEMAN ST ,,3/10/15 21:51,12:00.1,12:00.1,2,39,-71.1208,42.3478,3300 3 3BR 1BA Apartment   241 Freeman St -71.1208 42.3478,BROOKLINE,Inner Core,400200.0,25021400200.0,,,
175960,607992,1850,2, TWO BEDROOM ONE BATHROOM APARTMENT FIVE LOWELL AVE ,2BR/1BA Apartment - 5 Lowell Ave, TWO BEDROOM ONE BATHROOM APARTMENT FIVE LOWELL AVE ,,9/20/15 1:00,12:00.1,12:00.1,2,39,-71.1884,42.3781,1850 2 2BR 1BA Apartment   5 Lowell Ave -71.1884 42.3781,WATERTOWN,Inner Core,370202.0,25017370202.0,,,
175961,607993,3775,2, TWO BEDROOM ONE BATHROOM APARTMENT 14 STORY ST ,2BR/1BA Apartment - 14 Story St, TWO BEDROOM ONE BATHROOM APARTMENT 14 STORY ST ,,8/8/15 3:23,12:00.1,12:00.1,2,39,-71.1225,42.3737,3775 2 2BR 1BA Apartment   14 Story St -71.1225 42.3737,CAMBRIDGE,Inner Core,354100.0,25017354100.0,West Cambridge,,
175962,607994,1700,2, TWO BEDROOM ONE BATHROOM APARTMENT SIX FAIRFAX ST ,2BR/1BA Apartment - 6 Fairfax St, TWO BEDROOM ONE BATHROOM APARTMENT SIX FAIRFAX ST ,,11/3/15 15:04,12:00.1,12:00.1,2,39,-71.0598,42.2843,1700 2 2BR 1BA Apartment   6 Fairfax St -71.0598 42.2843,BOSTON,Inner Core,100800.0,25025100800.0,Dorchester,Dorchester,NEPONSET F.C.
175963,607995,5000,2, TWO BEDROOM ONE BATHROOM APARTMENT 252 NEWBURY ST ,2BR/1BA Apartment - 252 Newbury St, TWO BEDROOM ONE BATHROOM APARTMENT 252 NEWBURY ST ,,3/26/15 20:16,12:00.1,12:00.1,2,39,-71.0827,42.3493,5000 2 2BR 1BA Apartment   252 Newbury St -71.0827 42.3493,BOSTON,Inner Core,10701.0,25025010701.0,Back Bay,Back Bay,BACK BAY B HILL
175964,607996,1773,2, TWO BEDROOM TWO BATHROOM APARTMENT 11 OVERLOOK RIDGE DR ,2BR/2BA Apartment - 11 Overlook Ridge Dr, TWO BEDROOM TWO BATHROOM APARTMENT 11 OVERLOOK RIDGE DR ,,8/8/15 4:40,12:00.1,12:00.1,2,39,-71.0196,42.4384,1773 2 2BR 2BA Apartment   11 Overlook Ridge Dr -71.0196 42.4384,REVERE,Inner Core,170300.0,25025170300.0,,,
175965,607997,2800,1, ONE BEDROOM ONE FIVE BATHROOM APARTMENT 43 CHESTNUT ST ,1BR/1.5BA Apartment - 43 Chestnut St, ONE BEDROOM ONE FIVE BATHROOM APARTMENT 43 CHESTNUT ST ,,8/8/15 5:29,12:00.1,12:00.1,2,39,-71.0589,42.3752,2800 1 1BR 1 5BA Apartment   43 Chestnut St -71.0589 42.3752,BOSTON,Inner Core,40100.0,25025040100.0,Charlestown,Charlestown,BUNKER HILL
175966,607998,3300,2, TWO BEDROOM TWO BATHROOM APARTMENT 533 CAMBRIDGE ST ,2BR/2BA Apartment - 533 Cambridge St, TWO BEDROOM TWO BATHROOM APARTMENT 533 CAMBRIDGE ST ,,12/5/15 14:56,12:00.1,12:00.1,2,39,-71.1394,42.353,3300 2 2BR 2BA Apartment   533 Cambridge St -71.1394 42.353,BOSTON,Inner Core,601.0,25025000601.0,Brighton,Allston,BRIGHTON
175967,607999,1800,2, TWO BEDROOM TWO BATHROOM APARTMENT ,2BR/2BA Apartment, TWO BEDROOM TWO BATHROOM APARTMENT ,,3/28/15 1:13,12:00.1,12:00.1,2,39,-70.9915035,42.4116482,1800 2 2BR 2BA Apartment -70.9915035 42.4116482,REVERE,Inner Core,170501.0,25025170501.0,,,
175968,608000,1950,1, ONE BEDROOM ONE BATHROOM APARTMENT 1455 BEACON ST ,1BR/1BA Apartment - 1455 Beacon St, ONE BEDROOM ONE BATHROOM APARTMENT 1455 BEACON ST ,,8/8/15 3:19,12:00.1,12:00.1,2,39,-71.1275,42.3402,1950 1 1BR 1BA Apartment   1455 Beacon St -71.1275 42.3402,BROOKLINE,Inner Core,400500.0,25021400500.0,,,
175970,608002,1700,0, 0 BEDROOM ONE BATHROOM APARTMENT 24 MT VERNON ST ,0BR/1BA Apartment - 24 Mt Vernon St, 0 BEDROOM ONE BATHROOM APARTMENT 24 MT VERNON ST ,,10/17/15 13:56,12:00.1,12:00.1,2,39,-71.0655,42.3583,1700 0 0BR 1BA Apartment   24 Mt Vernon St -71.0655 42.3583,BOSTON,Inner Core,20101.0,25025020101.0,Beacon Hill,Beacon Hill,BACK BAY B HILL
175971,608003,1900,1, ONE BEDROOM ONE BATHROOM APARTMENT 45 BAY STATE RD ,1BR/1BA Apartment - 45 Bay State Rd, ONE BEDROOM ONE BATHROOM APARTMENT 45 BAY STATE RD ,,11/11/15 11:55,12:00.1,12:00.1,2,39,-71.0949,42.3502,1900 1 1BR 1BA Apartment   45 Bay State Rd -71.0949 42.3502,BOSTON,Inner Core,10104.0,25025010104.0,Fenway,Fenway,FENWAY
175972,608004,2500,3, THREE BEDROOM ONE BATHROOM APARTMENT 1682 COMMONWEALTH AVENUE ,3BR/1BA Apartment - 1682 Commonwealth Avenue, THREE BEDROOM ONE BATHROOM APARTMENT 1682 COMMONWEALTH AVENUE ,,6/26/15 21:47,12:00.1,12:00.1,2,39,-71.1455,42.3415,2500 3 3BR 1BA Apartment   1682 Commonwealth Avenue -71.1455 42.3415,BOSTON,Inner Core,504.0,25025000504.0,Brighton,Brighton,BRIGHTON
175973,608005,5400,4, FOUR BEDROOM ONE BATHROOM APARTMENT 422 HANOVER ST ,4BR/1BA Apartment - 422 Hanover St, FOUR BEDROOM ONE BATHROOM APARTMENT 422 HANOVER ST ,,3/26/15 20:25,12:00.2,12:00.2,2,39,-71.0528,42.3662,5400 4 4BR 1BA Apartment   422 Hanover St -71.0528 42.3662,BOSTON,Inner Core,30500.0,25025030500.0,North End,North End,N END/WATERFRONT
175974,608006,1900,2, TWO BEDROOM ONE BATHROOM APARTMENT 604 CAMBRIDGE ST ,2BR/1BA Apartment - 604 Cambridge St, TWO BEDROOM ONE BATHROOM APARTMENT 604 CAMBRIDGE ST ,,3/26/15 20:24,12:00.2,12:00.2,2,39,-71.1423,42.3518,1900 2 2BR 1BA Apartment   604 Cambridge St -71.1423 42.3518,BOSTON,Inner Core,602.0,25025000602.0,Brighton,Allston,BRIGHTON
175975,608007,4000,2, TWO BEDROOM TWO BATHROOM APARTMENT 20 ROWES WHARF ,2BR/2BA Apartment - 20 Rowes Wharf, TWO BEDROOM TWO BATHROOM APARTMENT 20 ROWES WHARF ,,8/8/15 3:43,12:00.2,12:00.2,2,39,-71.0505,42.3569,4000 2 2BR 2BA Apartment   20 Rowes Wharf -71.0505 42.3569,BOSTON,Inner Core,30300.0,25025030300.0,Downtown,Downtown,N END/WATERFRONT
175976,608008,2000,4, FOUR BEDROOM ONE BATHROOM APARTMENT 33 FAYWOOD AVE ,4BR/1BA Apartment - 33 Faywood Ave, FOUR BEDROOM ONE BATHROOM APARTMENT 33 FAYWOOD AVE ,,12/4/15 1:22,12:00.2,12:00.2,2,39,-71.0003,42.3904,2000 4 4BR 1BA Apartment   33 Faywood Ave -71.0003 42.3904,BOSTON,Inner Core,51101.0,25025051101.0,East Boston,East Boston,ORIENT HEIGHTS
175977,608009,4400,2, TWO BEDROOM TWO BATHROOM APARTMENT 21 SYMPHONY RD ,2BR/2BA Apartment - 21 Symphony Rd, TWO BEDROOM TWO BATHROOM APARTMENT 21 SYMPHONY RD ,,8/8/15 5:23,12:00.2,12:00.2,2,39,-71.0877,42.3429,4400 2 2BR 2BA Apartment   21 Symphony Rd -71.0877 42.3429,BOSTON,Inner Core,10404.0,25025010404.0,Fenway,Fenway,FENWAY
175978,608010,5105,3, THREE BEDROOM TWO FIVE BATHROOM APARTMENT ONE LONGFELLOW PL ,3BR/2.5BA Apartment - 1 Longfellow Pl, THREE BEDROOM TWO FIVE BATHROOM APARTMENT ONE LONGFELLOW PL ,,8/8/15 6:41,12:00.2,12:00.2,2,39,-71.0645,42.3636,5105 3 3BR 2 5BA Apartment   1 Longfellow Pl -71.0645 42.3636,BOSTON,Inner Core,20303.0,25025020303.0,West End,West End,N END/WATERFRONT
175980,608012,2400,2, TWO BEDROOM ONE BATHROOM APARTMENT 137 PARK DR ,2BR/1BA Apartment - 137 Park Dr, TWO BEDROOM ONE BATHROOM APARTMENT 137 PARK DR ,,8/8/15 5:27,12:00.2,12:00.2,2,39,-71.0977,42.3414,2400 2 2BR 1BA Apartment   137 Park Dr -71.0977 42.3414,BOSTON,Inner Core,10203.0,25025010203.0,Fenway,Fenway,FENWAY
175981,608013,3000,2, TWO BEDROOM ONE BATHROOM APARTMENT 106 LONGWOOD AVE ,2BR/1BA Apartment - 106 Longwood Ave, TWO BEDROOM ONE BATHROOM APARTMENT 106 LONGWOOD AVE ,,3/26/15 20:20,12:00.2,12:00.2,2,39,-71.1158,42.3407,3000 2 2BR 1BA Apartment   106 Longwood Ave -71.1158 42.3407,BROOKLINE,Inner Core,400800.0,25021400800.0,,,
175982,608014,4825,2, TWO BEDROOM TWO BATHROOM APARTMENT 20 CHAPEL ST ,2BR/2BA Apartment - 20 Chapel St, TWO BEDROOM TWO BATHROOM APARTMENT 20 CHAPEL ST ,,6/26/15 21:48,12:00.2,12:00.2,2,39,-71.1111,42.3412,4825 2 2BR 2BA Apartment   20 Chapel St -71.1111 42.3412,BROOKLINE,Inner Core,400100.0,25021400100.0,,,
175983,608015,2200,1, ONE BEDROOM ONE BATHROOM APARTMENT 1731 BEACON ST ,1BR/1BA Apartment - 1731 Beacon St, ONE BEDROOM ONE BATHROOM APARTMENT 1731 BEACON ST ,,3/26/15 20:23,12:00.2,12:00.2,2,39,-71.1399,42.3379,2200 1 1BR 1BA Apartment   1731 Beacon St -71.1399 42.3379,BROOKLINE,Inner Core,400600.0,25021400600.0,,,
175984,608016,2700,3, THREE BEDROOM TWO BATHROOM APARTMENT 61 POPLAR ST ,3BR/2BA Apartment - 61 Poplar St, THREE BEDROOM TWO BATHROOM APARTMENT 61 POPLAR ST ,,12/4/15 1:42,12:00.2,12:00.2,2,39,-71.1789,42.3799,2700 3 3BR 2BA Apartment   61 Poplar St -71.1789 42.3799,WATERTOWN,Inner Core,370202.0,25017370202.0,,,
175985,608017,3890,2, TWO BEDROOM TWO BATHROOM APARTMENT FOUR EMERSON PL ,2BR/2BA Apartment - 4 Emerson Pl, TWO BEDROOM TWO BATHROOM APARTMENT FOUR EMERSON PL ,,3/26/15 20:24,12:00.2,12:00.2,2,39,-71.0686,42.3642,3890 2 2BR 2BA Apartment   4 Emerson Pl -71.0686 42.3642,BOSTON,Inner Core,20301.0,25025020301.0,West End,West End,N END/WATERFRONT
175986,608018,3000,1, ONE BEDROOM ONE BATHROOM APARTMENT 240 MARLBOROUGH ST ,1BR/1BA Apartment - 240 Marlborough St, ONE BEDROOM ONE BATHROOM APARTMENT 240 MARLBOROUGH ST ,,8/8/15 5:10,12:00.2,12:00.2,2,39,-71.0819,42.352,3000 1 1BR 1BA Apartment   240 Marlborough St -71.0819 42.352,BOSTON,Inner Core,10802.0,25025010802.0,Back Bay,Back Bay,BACK BAY B HILL
175987,608019,1850,1, ONE BEDROOM ONE BATHROOM APARTMENT 28 LEAMINGTON RD ,1BR/1BA Apartment - 28 Leamington Rd, ONE BEDROOM ONE BATHROOM APARTMENT 28 LEAMINGTON RD ,,10/31/15 23:51,12:00.2,12:00.2,2,39,-71.1502,42.342,1850 1 1BR 1BA Apartment   28 Leamington Rd -71.1502 42.342,BOSTON,Inner Core,401.0,25025000401.0,Brighton,Brighton,BRIGHTON
175988,608020,1750,1, ONE BEDROOM ONE BATHROOM APARTMENT 1450 COMMONWEALTH AVENUE ,1BR/1BA Apartment - 1450 Commonwealth Avenue, ONE BEDROOM ONE BATHROOM APARTMENT 1450 COMMONWEALTH AVENUE ,,3/26/15 20:15,12:00.2,12:00.2,2,39,-71.1401,42.3477,1750 1 1BR 1BA Apartment   1450 Commonwealth Avenue -71.1401 42.3477,BOSTON,Inner Core,701.0,25025000701.0,Brighton,Allston,BRIGHTON
175989,608021,2400,3, THREE BEDROOM ONE BATHROOM APARTMENT 81 BEECHCROFT ST ,3BR/1BA Apartment - 81 Beechcroft St, THREE BEDROOM ONE BATHROOM APARTMENT 81 BEECHCROFT ST ,,8/8/15 4:01,12:00.2,12:00.2,2,39,-71.161,42.3517,2400 3 3BR 1BA Apartment   81 Beechcroft St -71.161 42.3517,BOSTON,Inner Core,201.0,25025000201.0,Brighton,Brighton,BRIGHTON
175990,608022,2900,4, FOUR BEDROOM ONE BATHROOM APARTMENT 1460 TREMONT ST ,4BR/1BA Apartment - 1460 Tremont St, FOUR BEDROOM ONE BATHROOM APARTMENT 1460 TREMONT ST ,,8/8/15 3:15,12:00.2,12:00.2,2,39,-71.0977,42.3319,2900 4 4BR 1BA Apartment   1460 Tremont St -71.0977 42.3319,BOSTON,Inner Core,80801.0,25025080801.0,Mission Hill,Mission Hill,MISSION HILL
175991,608023,2225,1, ONE BEDROOM ONE BATHROOM APARTMENT 174 BAY STATE RD ,1BR/1BA Apartment - 174 Bay State Rd, ONE BEDROOM ONE BATHROOM APARTMENT 174 BAY STATE RD ,,10/24/15 0:49,12:00.2,12:00.2,2,39,-71.1015,42.3502,2225 1 1BR 1BA Apartment   174 Bay State Rd -71.1015 42.3502,BOSTON,Inner Core,10103.0,25025010103.0,Fenway,Fenway,FENWAY
175992,608024,2150,1, ONE BEDROOM ONE BATHROOM APARTMENT 12 BLACKWOOD ST ,1BR/1BA Apartment - 12 Blackwood St, ONE BEDROOM ONE BATHROOM APARTMENT 12 BLACKWOOD ST ,,8/8/15 5:26,12:00.2,12:00.2,2,39,-71.0821,42.3428,2150 1 1BR 1BA Apartment   12 Blackwood St -71.0821 42.3428,BOSTON,Inner Core,10500.0,25025010500.0,Back Bay,Back Bay,BACK BAY B HILL
175993,608025,1650,1, ONE BEDROOM ONE BATHROOM APARTMENT 435 CAMBRIDGE ST ,1BR/1BA Apartment - 435 Cambridge St, ONE BEDROOM ONE BATHROOM APARTMENT 435 CAMBRIDGE ST ,,11/10/15 14:59,12:00.2,12:00.2,2,39,-71.1346,42.3549,1650 1 1BR 1BA Apartment   435 Cambridge St -71.1346 42.3549,BOSTON,Inner Core,802.0,25025000802.0,Allston,Allston,ALLSTON
175994,608026,2330,2, TWO BEDROOM TWO BATHROOM APARTMENT 52 ELIOT ST ,2BR/2BA Apartment - 52 Eliot St, TWO BEDROOM TWO BATHROOM APARTMENT 52 ELIOT ST ,,8/8/15 3:23,12:00.2,12:00.2,2,39,-71.0702,42.27,2330 2 2BR 2BA Apartment   52 Eliot St -71.0702 42.27,MILTON,Maturing Suburbs,416300.0,25021416300.0,,,
175995,608027,2410,2, TWO BEDROOM ONE BATHROOM APARTMENT 23 THORNTON RD ,2BR/1BA Apartment - 23 Thornton Rd, TWO BEDROOM ONE BATHROOM APARTMENT 23 THORNTON RD ,,8/8/15 5:24,12:00.3,12:00.3,2,39,-71.1536,42.2992,2410 2 2BR 1BA Apartment   23 Thornton Rd -71.1536 42.2992,BROOKLINE,Inner Core,401200.0,25021401200.0,,,
175996,608028,3400,3, THREE BEDROOM ONE BATHROOM APARTMENT 112 LONGWOOD AVE ,3BR/1BA Apartment - 112 Longwood Ave, THREE BEDROOM ONE BATHROOM APARTMENT 112 LONGWOOD AVE ,,3/26/15 20:21,12:00.3,12:00.3,2,39,-71.1155,42.3407,3400 3 3BR 1BA Apartment   112 Longwood Ave -71.1155 42.3407,BROOKLINE,Inner Core,400800.0,25021400800.0,,,
175998,608030,1775,2, TWO BEDROOM TWO BATHROOM APARTMENT 175 MAPLE ST ,2BR/2BA Apartment - 175 Maple St, TWO BEDROOM TWO BATHROOM APARTMENT 175 MAPLE ST ,,8/8/15 6:47,12:00.3,12:00.3,2,39,-71.5434,42.341,1775 2 2BR 2BA Apartment   175 Maple St -71.5434 42.341,MARLBOROUGH,Regional Urban Centers,321300.0,25017321300.0,,,
175999,608031,2700,2, TWO BEDROOM ONE BATHROOM APARTMENT 65 BRAINERD RD ,2BR/1BA Apartment - 65 Brainerd Rd, TWO BEDROOM ONE BATHROOM APARTMENT 65 BRAINERD RD ,,8/8/15 3:25,12:00.3,12:00.3,2,39,-71.1332,42.3477,2700 2 2BR 1BA Apartment   65 Brainerd Rd -71.1332 42.3477,BOSTON,Inner Core,704.0,25025000704.0,Allston,Allston,BRIGHTON
176000,608032,2700,2, TWO BEDROOM TWO BATHROOM APARTMENT 401 E 7TH ST ,2BR/2BA Apartment - 401 E 7th St, TWO BEDROOM TWO BATHROOM APARTMENT 401 E 7TH ST ,,8/8/15 5:28,12:00.3,12:00.3,2,39,-71.0439,42.332,2700 2 2BR 2BA Apartment   401 E 7th St -71.0439 42.332,BOSTON,Inner Core,60400.0,25025060400.0,South Boston,South Boston,SOUTH BOSTON
176001,608033,1695,2, TWO BEDROOM ONE BATHROOM APARTMENT 275 CHELSEA ST ,2BR/1BA Apartment - 275 Chelsea St, TWO BEDROOM ONE BATHROOM APARTMENT 275 CHELSEA ST ,,8/8/15 5:54,12:00.3,12:00.3,2,39,-71.0309,42.3765,1695 2 2BR 1BA Apartment   275 Chelsea St -71.0309 42.3765,BOSTON,Inner Core,50700.0,25025050700.0,East Boston,East Boston,MAVERICK
176002,608034,3100,2, TWO BEDROOM ONE BATHROOM APARTMENT 97 E BROOKLINE ST ,2BR/1BA Apartment - 97 E Brookline St, TWO BEDROOM ONE BATHROOM APARTMENT 97 E BROOKLINE ST ,,8/8/15 4:04,12:00.3,12:00.3,2,39,-71.0698,42.3372,3100 2 2BR 1BA Apartment   97 E Brookline St -71.0698 42.3372,BOSTON,Inner Core,71101.0,25025071101.0,South End,South End,SOUTH END
176003,608035,4550,3, THREE BEDROOM TWO BATHROOM APARTMENT 108 PETERBOROUGH ST ,3BR/2BA Apartment - 108 Peterborough St, THREE BEDROOM TWO BATHROOM APARTMENT 108 PETERBOROUGH ST ,,8/8/15 3:05,12:00.3,12:00.3,2,39,-71.1,42.343,4550 3 3BR 2BA Apartment   108 Peterborough St -71.1 42.343,BOSTON,Inner Core,10203.0,25025010203.0,Fenway,Fenway,FENWAY
176004,608036,1900,2, TWO BEDROOM ONE FIVE BATHROOM APARTMENT 195 COPELAND ST ,2BR/1.5BA Apartment - 195 Copeland St, TWO BEDROOM ONE FIVE BATHROOM APARTMENT 195 COPELAND ST ,,11/8/15 1:27,12:04.0,12:04.0,2,39,-71.0235,42.2442,1900 2 2BR 1 5BA Apartment   195 Copeland St -71.0235 42.2442,QUINCY,Regional Urban Centers,418102.0,25021418102.0,Quincy,,
176005,608037,1695,2, TWO BEDROOM ONE FIVE BATHROOM APARTMENT ONE NORWEST DR ,2BR/1.5BA Apartment - 1 Norwest Dr, TWO BEDROOM ONE FIVE BATHROOM APARTMENT ONE NORWEST DR ,,10/31/15 23:42,12:04.0,12:04.0,2,39,-71.2088,42.2063,1695 2 2BR 1 5BA Apartment   1 Norwest Dr -71.2088 42.2063,NORWOOD,Regional Urban Centers,413200.0,25021413200.0,,,
176006,608038,4960,2, TWO BEDROOM TWO BATHROOM APARTMENT 106 13TH ST ,2BR/2BA Apartment - 106 13th St, TWO BEDROOM TWO BATHROOM APARTMENT 106 13TH ST ,,11/9/15 16:19,12:04.0,12:04.0,2,39,-71.0508,42.3768,4960 2 2BR 2BA Apartment   106 13th St -71.0508 42.3768,BOSTON,Inner Core,40801.0,25025040801.0,Charlestown,Charlestown,NAVY YARD
176007,608039,3900,3, THREE BEDROOM ONE BATHROOM APARTMENT 224 HANOVER ST ,3BR/1BA Apartment - 224 Hanover St, THREE BEDROOM ONE BATHROOM APARTMENT 224 HANOVER ST ,,3/26/15 20:13,12:04.0,12:04.0,2,39,-71.0553,42.3631,3900 3 3BR 1BA Apartment   224 Hanover St -71.0553 42.3631,BOSTON,Inner Core,30400.0,25025030400.0,North End,North End,N END/WATERFRONT
176008,608040,2600,1, ONE BEDROOM ONE BATHROOM APARTMENT 28 HEMENWAY ST ,1BR/1BA Apartment - 28 Hemenway St, ONE BEDROOM ONE BATHROOM APARTMENT 28 HEMENWAY ST ,,8/8/15 6:06,12:04.0,12:04.0,2,39,-71.089,42.3467,2600 1 1BR 1BA Apartment   28 Hemenway St -71.089 42.3467,BOSTON,Inner Core,10403.0,25025010403.0,Fenway,Fenway,FENWAY
176009,608041,1150,1, ONE BEDROOM ONE 150 ONE BR ,"One BR, $1,150 - One BR", ONE BEDROOM ONE 150 ONE BR ,,12/8/15 19:52,12:04.0,12:04.0,2,39,-71.0933204,42.3485815,1150 1 One BR   1 150   One BR -71.0933204 42.3485815,BOSTON,Inner Core,10104.0,25025010104.0,Fenway,Fenway,FENWAY
176010,608042,1650,1, ONE BEDROOM ONE BATHROOM APARTMENT 1197 COMMONWEALTH AVENUE ,1BR/1BA Apartment - 1197 Commonwealth Avenue, ONE BEDROOM ONE BATHROOM APARTMENT 1197 COMMONWEALTH AVENUE ,,3/26/15 20:14,12:04.0,12:04.0,2,39,-71.1296,42.351,1650 1 1BR 1BA Apartment   1197 Commonwealth Avenue -71.1296 42.351,BOSTON,Inner Core,703.0,25025000703.0,Allston,Allston,BRIGHTON
176011,608043,2100,2, TWO BEDROOM ONE BATHROOM APARTMENT 13 RUGGLES ST ,2BR/1BA Apartment - 13 Ruggles St, TWO BEDROOM ONE BATHROOM APARTMENT 13 RUGGLES ST ,,10/31/15 23:47,12:04.0,12:04.0,2,39,-71.0833,42.3315,2100 2 2BR 1BA Apartment   13 Ruggles St -71.0833 42.3315,BOSTON,Inner Core,80401.0,25025080401.0,Roxbury,Roxbury,WASH PARK
176012,608044,2265,0, 0 BEDROOM ONE BATHROOM APARTMENT FOUR EMERSON PL ,0BR/1BA Apartment - 4 Emerson Pl, 0 BEDROOM ONE BATHROOM APARTMENT FOUR EMERSON PL ,,3/26/15 20:24,12:04.0,12:04.0,2,39,-71.0686,42.3642,2265 0 0BR 1BA Apartment   4 Emerson Pl -71.0686 42.3642,BOSTON,Inner Core,20301.0,25025020301.0,West End,West End,N END/WATERFRONT
176013,608045,5595,1, ONE BEDROOM ONE BATHROOM APARTMENT 100 ARLINGTON ST ,1BR/1BA Apartment - 100 Arlington St, ONE BEDROOM ONE BATHROOM APARTMENT 100 ARLINGTON ST ,,10/22/15 16:46,12:04.0,12:04.0,2,39,-71.0697,42.3499,5595 1 1BR 1BA Apartment   100 Arlington St -71.0697 42.3499,BOSTON,Inner Core,70300.0,25025070300.0,South End,Bay Village,PK SQ BAY VILL
176014,608046,4600,4, FOUR BEDROOM ONE FIVE BATHROOM APARTMENT FOUR MICHELANGELO ST ,4BR/1.5BA Apartment - 4 Michelangelo St, FOUR BEDROOM ONE FIVE BATHROOM APARTMENT FOUR MICHELANGELO ST ,,11/23/15 0:39,12:04.0,12:04.0,2,39,-71.0548,42.3669,4600 4 4BR 1 5BA Apartment   4 Michelangelo St -71.0548 42.3669,BOSTON,Inner Core,30100.0,25025030100.0,North End,North End,N END/WATERFRONT
