,id,ask,bedrooms,title,original_title,cl_title,address,post_at,created_at,updated_at,source_id,survey_id,latitude,longitude,uniqueid,town,comm_type,tract10,ct10_id,neighborhood_01,neighborhood_02,neighborhood_03
176115,608147,2700,2, TWO BEDROOM ONE BATHROOM APARTMENT 525 NEWBURY ST ,2BR/1BA Apartment - 525 Newbury St, TWO BEDROOM ONE BATHROOM APARTMENT 525 NEWBURY ST ,,8/8/15 6:40,12:11.7,12:11.7,2,39,-71.0936,42.3482,2700 2 2BR 1BA Apartment   525 Newbury St -71.0936 42.3482,BOSTON,Inner Core,10104.0,25025010104.0,Fenway,Fenway,FENWAY
176116,608148,1625,2, TWO BEDROOM ONE BATHROOM APARTMENT 100 MAIN ST ,2BR/1BA Apartment - 100 Main St, TWO BEDROOM ONE BATHROOM APARTMENT 100 MAIN ST ,,11/23/15 0:35,12:11.7,12:11.7,2,39,-71.1,42.4954,1625 2 2BR 1BA Apartment   100 Main St -71.1 42.4954,STONEHAM,Maturing Suburbs,337201.0,25017337201.0,,,
176117,608149,1925,1, ONE BEDROOM ONE BATHROOM APARTMENT 465 PARK DR ,1BR/1BA Apartment - 465 Park Dr, ONE BEDROOM ONE BATHROOM APARTMENT 465 PARK DR ,,3/26/15 20:25,12:11.7,12:11.7,2,39,-71.1048,42.3461,1925 1 1BR 1BA Apartment   465 Park Dr -71.1048 42.3461,BOSTON,Inner Core,10204.0,25025010204.0,Fenway,Fenway,FENWAY
176118,608150,1425,2, TWO BEDROOM ONE BATHROOM APARTMENT 249 BENNINGTON ST ,2BR/1BA Apartment - 249 Bennington St, TWO BEDROOM ONE BATHROOM APARTMENT 249 BENNINGTON ST ,,12/2/15 14:58,12:11.7,12:11.7,2,39,-71.0299,42.3782,1425 2 2BR 1BA Apartment   249 Bennington St -71.0299 42.3782,BOSTON,Inner Core,50200.0,25025050200.0,East Boston,East Boston,MAVERICK
176119,608151,2100,2, TWO BEDROOM ONE BATHROOM APARTMENT 126 WINSOR AVE ,2BR/1BA Apartment - 126 Winsor Ave, TWO BEDROOM ONE BATHROOM APARTMENT 126 WINSOR AVE ,,8/8/15 5:53,12:11.7,12:11.7,2,39,-71.1635,42.3753,2100 2 2BR 1BA Apartment   126 Winsor Ave -71.1635 42.3753,WATERTOWN,Inner Core,370201.0,25017370201.0,,,
176120,608152,2725,1, ONE BEDROOM ONE BATHROOM APARTMENT 45 E NEWTON ST ,1BR/1BA Apartment - 45 E Newton St, ONE BEDROOM ONE BATHROOM APARTMENT 45 E NEWTON ST ,,3/26/15 20:14,12:11.7,12:11.7,2,39,-71.0723,42.3376,2725 1 1BR 1BA Apartment   45 E Newton St -71.0723 42.3376,BOSTON,Inner Core,71101.0,25025071101.0,South End,South End,SOUTH END
176121,608153,4400,4, FOUR BEDROOM TWO BATHROOM APARTMENT 48 BABCOCK ST ,4BR/2BA Apartment - 48 Babcock St, FOUR BEDROOM TWO BATHROOM APARTMENT 48 BABCOCK ST ,,3/26/15 20:11,12:11.7,12:11.7,2,39,-71.1222,42.3448,4400 4 4BR 2BA Apartment   48 Babcock St -71.1222 42.3448,BROOKLINE,Inner Core,400300.0,25021400300.0,,,
176122,608154,2070,0, 0 BEDROOM ONE BATHROOM APARTMENT 25 CHARLTON ST ,0BR/1BA Apartment - 25 Charlton St, 0 BEDROOM ONE BATHROOM APARTMENT 25 CHARLTON ST ,,11/26/15 0:49,12:11.7,12:11.7,2,39,-71.0633,42.4005,2070 0 0BR 1BA Apartment   25 Charlton St -71.0633 42.4005,EVERETT,Inner Core,342400.0,25017342400.0,,,
176123,608155,3200,3, THREE BEDROOM ONE BATHROOM APARTMENT 32 SYMPHONY RD ,3BR/1BA Apartment - 32 Symphony Rd, THREE BEDROOM ONE BATHROOM APARTMENT 32 SYMPHONY RD ,,8/8/15 4:21,12:11.7,12:11.7,2,39,-71.0883,42.3429,3200 3 3BR 1BA Apartment   32 Symphony Rd -71.0883 42.3429,BOSTON,Inner Core,10404.0,25025010404.0,Fenway,Fenway,FENWAY
176124,608156,1450,1, ONE BEDROOM ONE BATHROOM APARTMENT 1246 COMMONWEALTH AVENUE ,1BR/1BA Apartment - 1246 Commonwealth Avenue, ONE BEDROOM ONE BATHROOM APARTMENT 1246 COMMONWEALTH AVENUE ,,11/16/15 18:01,12:11.8,12:11.8,2,39,-71.1317,42.3494,1450 1 1BR 1BA Apartment   1246 Commonwealth Avenue -71.1317 42.3494,BOSTON,Inner Core,704.0,25025000704.0,Allston,Allston,BRIGHTON
176125,608157,1800,2, TWO BEDROOM ONE BATHROOM APARTMENT 83 GORDON ST ,2BR/1BA Apartment - 83 Gordon St, TWO BEDROOM ONE BATHROOM APARTMENT 83 GORDON ST ,,9/23/15 23:31,12:11.8,12:11.8,2,39,-71.1401,42.3501,1800 2 2BR 1BA Apartment   83 Gordon St -71.1401 42.3501,BOSTON,Inner Core,602.0,25025000602.0,Brighton,Brighton,BRIGHTON
176126,608158,3625,3, THREE BEDROOM ONE BATHROOM APARTMENT 50 STATION LANDING ,3BR/1BA Apartment - 50 Station Landing, THREE BEDROOM ONE BATHROOM APARTMENT 50 STATION LANDING ,,3/26/15 20:24,12:11.8,12:11.8,2,39,-71.0811,42.4021,3625 3 3BR 1BA Apartment   50 Station Landing -71.0811 42.4021,MEDFORD,Inner Core,339801.0,25017339801.0,,,
176127,608159,1350,0, 0 BEDROOM ONE BATHROOM APARTMENT 1027 COMMONWEALTH AVENUE ,0BR/1BA Apartment - 1027 Commonwealth Avenue, 0 BEDROOM ONE BATHROOM APARTMENT 1027 COMMONWEALTH AVENUE ,,12/4/15 1:07,12:11.8,12:11.8,2,39,-71.1217,42.3521,1350 0 0BR 1BA Apartment   1027 Commonwealth Avenue -71.1217 42.3521,BOSTON,Inner Core,802.0,25025000802.0,Allston,Allston,ALLSTON
176128,608160,4400,4, FOUR BEDROOM ONE BATHROOM APARTMENT THREE AYR RD ,4BR/1BA Apartment - 3 Ayr Rd, FOUR BEDROOM ONE BATHROOM APARTMENT THREE AYR RD ,,6/26/15 21:50,12:11.8,12:11.8,2,39,-71.1491,42.337,4400 4 4BR 1BA Apartment   3 Ayr Rd -71.1491 42.337,BOSTON,Inner Core,502.0,25025000502.0,Brighton,Brighton,BRIGHTON
176129,608161,2500,3, THREE BEDROOM FOUR 0 BATHROOM 1320 SQFT TWO 500 THREE BR ,"Three BR, 4.0 BA, 1320 sqft, $2,500 - Three BR", THREE BEDROOM FOUR 0 BATHROOM 1320 SQFT TWO 500 THREE BR ,,12/9/15 17:52,12:11.8,12:11.8,2,39,-71.0898925,42.4260739,2500 3 Three BR  4 0 BA  1320 sqft   2 500   Three BR -71.0898925 42.4260739,MEDFORD,Inner Core,340100.0,25017340100.0,,,
176130,608162,2195,2, TWO BEDROOM ONE BATHROOM APARTMENT 19 VINAL ST ,2BR/1BA Apartment - 19 Vinal St, TWO BEDROOM ONE BATHROOM APARTMENT 19 VINAL ST ,,8/8/15 3:19,12:11.8,12:11.8,2,39,-71.1382,42.3458,2195 2 2BR 1BA Apartment   19 Vinal St -71.1382 42.3458,BOSTON,Inner Core,701.0,25025000701.0,Brighton,Brighton,BRIGHTON
176131,608163,2200,1, ONE BEDROOM ONE BATHROOM APARTMENT 158 MAGAZINE ST ,1BR/1BA Apartment - 158 Magazine St, ONE BEDROOM ONE BATHROOM APARTMENT 158 MAGAZINE ST ,,10/31/15 23:44,12:11.8,12:11.8,2,39,-71.1123,42.358,2200 1 1BR 1BA Apartment   158 Magazine St -71.1123 42.358,CAMBRIDGE,Inner Core,353300.0,25017353300.0,Cambridgeport,,
176132,608164,5600,7, SEVEN BEDROOM THREE BATHROOM APARTMENT SEVEN GREYLOCK RD ,7BR/3BA Apartment - 7 Greylock Rd, SEVEN BEDROOM THREE BATHROOM APARTMENT SEVEN GREYLOCK RD ,,3/26/15 20:25,12:11.8,12:11.8,2,39,-71.1355,42.3504,5600 7 7BR 3BA Apartment   7 Greylock Rd -71.1355 42.3504,BOSTON,Inner Core,704.0,25025000704.0,Allston,Allston,BRIGHTON
176133,608165,1675,2, TWO BEDROOM ONE BATHROOM APARTMENT 11 EMBASSY RD ,2BR/1BA Apartment - 11 Embassy Rd, TWO BEDROOM ONE BATHROOM APARTMENT 11 EMBASSY RD ,,8/8/15 3:19,12:11.8,12:11.8,2,39,-71.1551,42.3419,1675 2 2BR 1BA Apartment   11 Embassy Rd -71.1551 42.3419,BOSTON,Inner Core,402.0,25025000402.0,Brighton,Brighton,BRIGHTON
176134,608166,3000,3, THREE BEDROOM TWO BATHROOM APARTMENT 404 CENTRE ST ,3BR/2BA Apartment - 404 Centre St, THREE BEDROOM TWO BATHROOM APARTMENT 404 CENTRE ST ,,12/2/15 15:08,12:11.8,12:11.8,2,39,-71.1101,42.3211,3000 3 3BR 2BA Apartment   404 Centre St -71.1101 42.3211,BOSTON,Inner Core,120600.0,25025120600.0,Jamaica Plain,Jamaica Plain,JP PONDSIDE
176135,608167,2300,1, ONE BEDROOM ONE BATHROOM APARTMENT 29 CLARK ST ,1BR/1BA Apartment - 29 Clark St, ONE BEDROOM ONE BATHROOM APARTMENT 29 CLARK ST ,,11/28/15 0:20,12:11.8,12:11.8,2,39,-71.0524,42.365,2300 1 1BR 1BA Apartment   29 Clark St -71.0524 42.365,BOSTON,Inner Core,30500.0,25025030500.0,North End,North End,N END/WATERFRONT
176136,608168,2800,2, TWO BEDROOM ONE BATHROOM APARTMENT 48 BABCOCK ST ,2BR/1BA Apartment - 48 Babcock St, TWO BEDROOM ONE BATHROOM APARTMENT 48 BABCOCK ST ,,3/26/15 20:11,12:11.8,12:11.8,2,39,-71.1222,42.3448,2800 2 2BR 1BA Apartment   48 Babcock St -71.1222 42.3448,BROOKLINE,Inner Core,400300.0,25021400300.0,,,
176137,608169,2300,1, ONE BEDROOM ONE BATHROOM APARTMENT 53 BALDWIN ST ,1BR/1BA Apartment - 53 Baldwin St, ONE BEDROOM ONE BATHROOM APARTMENT 53 BALDWIN ST ,,10/4/15 1:34,12:11.8,12:11.8,2,39,-71.0703,42.3818,2300 1 1BR 1BA Apartment   53 Baldwin St -71.0703 42.3818,BOSTON,Inner Core,40600.0,25025040600.0,Charlestown,Charlestown,SULLIVAN
176138,608170,2500,2, TWO BEDROOM TWO BATHROOM APARTMENT 23 ELM ST ,2BR/2BA Apartment - 23 Elm St, TWO BEDROOM TWO BATHROOM APARTMENT 23 ELM ST ,,8/8/15 6:14,12:11.8,12:11.8,2,39,-71.1141,42.387,2500 2 2BR 2BA Apartment   23 Elm St -71.1141 42.387,SOMERVILLE,Inner Core,351000.0,25017351000.0,Spring Hill,,
176139,608171,1950,0, 0 BEDROOM ONE BATHROOM APARTMENT ,0BR/1BA Apartment, 0 BEDROOM ONE BATHROOM APARTMENT ,,12/6/15 14:48,12:11.8,12:11.8,2,39,-71.0857534,42.3603267,1950 0 0BR 1BA Apartment -71.0857534 42.3603267,CAMBRIDGE,Inner Core,353102.0,25017353102.0,Area 2/MIT,,
176140,608172,2650,1, ONE BEDROOM ONE BATHROOM APARTMENT 28 EXETER ST ,1BR/1BA Apartment - 28 Exeter St, ONE BEDROOM ONE BATHROOM APARTMENT 28 EXETER ST ,,6/26/15 21:52,12:11.8,12:11.8,2,39,-71.0797,42.3501,2650 1 1BR 1BA Apartment   28 Exeter St -71.0797 42.3501,BOSTON,Inner Core,10702.0,25025010702.0,Back Bay,Back Bay,BACK BAY B HILL
176141,608173,3200,2, TWO BEDROOM ONE BATHROOM APARTMENT SEVEN YARMOUTH ST ,2BR/1BA Apartment - 7 Yarmouth St, TWO BEDROOM ONE BATHROOM APARTMENT SEVEN YARMOUTH ST ,,8/8/15 3:25,12:11.8,12:11.8,2,39,-71.0759,42.3454,3200 2 2BR 1BA Apartment   7 Yarmouth St -71.0759 42.3454,BOSTON,Inner Core,70700.0,25025070700.0,South End,South End,SOUTH END
176142,608174,1900,2, TWO BEDROOM ONE BATHROOM APARTMENT 229 LONDON ST ,2BR/1BA Apartment - 229 London St, TWO BEDROOM ONE BATHROOM APARTMENT 229 LONDON ST ,,8/8/15 3:15,12:11.8,12:11.8,2,39,-71.0359,42.3758,1900 2 2BR 1BA Apartment   229 London St -71.0359 42.3758,BOSTON,Inner Core,50700.0,25025050700.0,East Boston,East Boston,MAVERICK
176143,608175,4500,5, FIVE BEDROOM TWO FIVE BATHROOM APARTMENT 59 DEXTER ST ,5BR/2.5BA Apartment - 59 Dexter St, FIVE BEDROOM TWO FIVE BATHROOM APARTMENT 59 DEXTER ST ,,8/8/15 6:49,12:11.8,12:11.8,2,39,-71.0789,42.4298,4500 5 5BR 2 5BA Apartment   59 Dexter St -71.0789 42.4298,MALDEN,Inner Core,341102.0,25017341102.0,,,
176144,608176,2160,1, ONE BEDROOM ONE BATHROOM APARTMENT 700 HURON AVE ,1BR/1BA Apartment - 700 Huron Ave, ONE BEDROOM ONE BATHROOM APARTMENT 700 HURON AVE ,,8/8/15 4:20,12:11.8,12:11.8,2,39,-71.1536,42.3806,2160 1 1BR 1BA Apartment   700 Huron Ave -71.1536 42.3806,CAMBRIDGE,Inner Core,354300.0,25017354300.0,Strawberry Hill,,
176145,608177,3200,3, THREE BEDROOM THREE BATHROOM APARTMENT 1207 BOYLSTON ST ,3BR/3BA Apartment - 1207 Boylston St, THREE BEDROOM THREE BATHROOM APARTMENT 1207 BOYLSTON ST ,,8/8/15 3:10,12:11.8,12:11.8,2,39,-71.2222,42.3178,3200 3 3BR 3BA Apartment   1207 Boylston St -71.2222 42.3178,NEWTON,Inner Core,374200.0,25017374200.0,,,
176146,608178,1800,2, TWO BEDROOM ONE BATHROOM APARTMENT 57 MILL ST ,2BR/1BA Apartment - 57 Mill St, TWO BEDROOM ONE BATHROOM APARTMENT 57 MILL ST ,,8/8/15 5:33,12:11.8,12:11.8,2,39,-71.119,42.4897,1800 2 2BR 1BA Apartment   57 Mill St -71.119 42.4897,WOBURN,Regional Urban Centers,333400.0,25017333400.0,,,
176147,608179,2750,3, THREE BEDROOM ONE BATHROOM APARTMENT 64 MURDOCK ST ,3BR/1BA Apartment - 64 Murdock St, THREE BEDROOM ONE BATHROOM APARTMENT 64 MURDOCK ST ,,3/26/15 20:13,12:11.9,12:11.9,2,39,-71.1472,42.3521,2750 3 3BR 1BA Apartment   64 Murdock St -71.1472 42.3521,BOSTON,Inner Core,202.0,25025000202.0,Brighton,Brighton,BRIGHTON
176148,608180,3950,2, TWO BEDROOM ONE BATHROOM APARTMENT 40 BUSWELL ST ,2BR/1BA Apartment - 40 Buswell St, TWO BEDROOM ONE BATHROOM APARTMENT 40 BUSWELL ST ,,8/11/15 22:06,12:11.9,12:11.9,2,39,-71.1061,42.3471,3950 2 2BR 1BA Apartment   40 Buswell St -71.1061 42.3471,BOSTON,Inner Core,10204.0,25025010204.0,Fenway,Fenway,FENWAY
176149,608181,1025,1, ONE BEDROOM ONE BATHROOM APARTMENT ,1BR/1BA Apartment, ONE BEDROOM ONE BATHROOM APARTMENT ,,3/28/15 1:27,12:11.9,12:11.9,2,39,-71.5113553,42.3464279,1025 1 1BR 1BA Apartment -71.5113553 42.3464279,MARLBOROUGH,Regional Urban Centers,321200.0,25017321200.0,,,
176150,608182,1460,0, 0 BEDROOM ONE BATHROOM APARTMENT 1185 COMMONWEALTH AVENUE ,0BR/1BA Apartment - 1185 Commonwealth Avenue, 0 BEDROOM ONE BATHROOM APARTMENT 1185 COMMONWEALTH AVENUE ,,3/26/15 20:14,12:11.9,12:11.9,2,39,-71.129,42.3509,1460 0 0BR 1BA Apartment   1185 Commonwealth Avenue -71.129 42.3509,BOSTON,Inner Core,703.0,25025000703.0,Allston,Allston,BRIGHTON
176151,608183,1350,0, 0 BEDROOM ONE BATHROOM APARTMENT 36 QUINT AVE ,0BR/1BA Apartment - 36 Quint Ave, 0 BEDROOM ONE BATHROOM APARTMENT 36 QUINT AVE ,,12/4/15 1:07,12:11.9,12:11.9,2,39,-71.1341,42.3519,1350 0 0BR 1BA Apartment   36 Quint Ave -71.1341 42.3519,BOSTON,Inner Core,704.0,25025000704.0,Allston,Allston,BRIGHTON
176152,608184,2745,1, ONE BEDROOM ONE BATHROOM APARTMENT 195 BINNEY ST ,1BR/1BA Apartment - 195 Binney St, ONE BEDROOM ONE BATHROOM APARTMENT 195 BINNEY ST ,,10/10/15 0:53,12:11.9,12:11.9,2,39,-71.0822,42.3661,2745 1 1BR 1BA Apartment   195 Binney St -71.0822 42.3661,CAMBRIDGE,Inner Core,352300.0,25017352300.0,East Cambridge,,
176153,608185,1640,1, ONE BEDROOM ONE BATHROOM APARTMENT 1189 COMMONWEALTH AVENUE ,1BR/1BA Apartment - 1189 Commonwealth Avenue, ONE BEDROOM ONE BATHROOM APARTMENT 1189 COMMONWEALTH AVENUE ,,3/26/15 20:14,12:11.9,12:11.9,2,39,-71.1292,42.3509,1640 1 1BR 1BA Apartment   1189 Commonwealth Avenue -71.1292 42.3509,BOSTON,Inner Core,703.0,25025000703.0,Allston,Allston,BRIGHTON
176154,608186,2595,3, THREE BEDROOM ONE BATHROOM APARTMENT 18 MT HOOD RD ,3BR/1BA Apartment - 18 Mt Hood Rd, THREE BEDROOM ONE BATHROOM APARTMENT 18 MT HOOD RD ,,2/28/15 5:22,12:15.4,12:15.4,2,39,-71.1424,42.3417,2595 3 3BR 1BA Apartment   18 Mt Hood Rd -71.1424 42.3417,BOSTON,Inner Core,504.0,25025000504.0,Brighton,Brighton,BRIGHTON
176155,608187,2900,3, THREE BEDROOM TWO BATHROOM APARTMENT 115 LITCHFIELD ST ,3BR/2BA Apartment - 115 Litchfield St, THREE BEDROOM TWO BATHROOM APARTMENT 115 LITCHFIELD ST ,,10/18/15 0:01,12:15.4,12:15.4,2,39,-71.1395,42.3623,2900 3 3BR 2BA Apartment   115 Litchfield St -71.1395 42.3623,BOSTON,Inner Core,100.0,25025000100.0,Brighton,Brighton,ALLSTON
176156,608188,6795,2, TWO BEDROOM TWO BATHROOM APARTMENT 400 STUART ST ,2BR/2BA Apartment - 400 Stuart St, TWO BEDROOM TWO BATHROOM APARTMENT 400 STUART ST ,,8/8/15 3:22,12:15.4,12:15.4,2,39,-71.0736,42.349,6795 2 2BR 2BA Apartment   400 Stuart St -71.0736 42.349,BOSTON,Inner Core,10600.0,25025010600.0,Back Bay,Back Bay,BACK BAY B HILL
176157,608189,2977,2, TWO BEDROOM ONE BATHROOM APARTMENT 700 HURON AVE ,2BR/1BA Apartment - 700 Huron Ave, TWO BEDROOM ONE BATHROOM APARTMENT 700 HURON AVE ,,8/8/15 4:06,12:15.4,12:15.4,2,39,-71.1536,42.3806,2977 2 2BR 1BA Apartment   700 Huron Ave -71.1536 42.3806,CAMBRIDGE,Inner Core,354300.0,25017354300.0,Strawberry Hill,,
176158,608190,2750,2, TWO BEDROOM TWO BATHROOM APARTMENT 1683 BEACON ST ,2BR/2BA Apartment - 1683 Beacon St, TWO BEDROOM TWO BATHROOM APARTMENT 1683 BEACON ST ,,8/8/15 6:27,12:15.4,12:15.4,2,39,-71.138,42.3383,2750 2 2BR 2BA Apartment   1683 Beacon St -71.138 42.3383,BROOKLINE,Inner Core,400500.0,25021400500.0,,,
176159,608191,2335,2, TWO BEDROOM ONE BATHROOM APARTMENT 40 RIVER ST ,2BR/1BA Apartment - 40 River St, TWO BEDROOM ONE BATHROOM APARTMENT 40 RIVER ST ,,11/15/15 1:35,12:15.4,12:15.4,2,39,-71.0716,42.2716,2335 2 2BR 1BA Apartment   40 River St -71.0716 42.2716,BOSTON,Inner Core,100900.0,25025100900.0,Mattapan,Mattapan,MATTAPAN
176160,608192,2600,2, TWO BEDROOM TWO BATHROOM APARTMENT FIVE HANCOCK ST ,2BR/2BA Apartment - 5 Hancock St, TWO BEDROOM TWO BATHROOM APARTMENT FIVE HANCOCK ST ,,8/8/15 3:04,12:15.4,12:15.4,2,39,-71.0382,42.2826,2600 2 2BR 2BA Apartment   5 Hancock St -71.0382 42.2826,QUINCY,Regional Urban Centers,417200.0,25021417200.0,Quincy,,
176161,608193,2470,1, ONE BEDROOM ONE BATHROOM APARTMENT 25 CHARLTON ST ,1BR/1BA Apartment - 25 Charlton St, ONE BEDROOM ONE BATHROOM APARTMENT 25 CHARLTON ST ,,8/8/15 3:37,12:15.5,12:15.5,2,39,-71.0633,42.4005,2470 1 1BR 1BA Apartment   25 Charlton St -71.0633 42.4005,EVERETT,Inner Core,342400.0,25017342400.0,,,
176162,608194,3000,1, ONE BEDROOM ONE BATHROOM APARTMENT 42 LOMASNEY WAY ,1BR/1BA Apartment - 42 Lomasney Way, ONE BEDROOM ONE BATHROOM APARTMENT 42 LOMASNEY WAY ,,10/17/15 13:55,12:15.5,12:15.5,2,39,-71.0643,42.3654,3000 1 1BR 1BA Apartment   42 Lomasney Way -71.0643 42.3654,BOSTON,Inner Core,20303.0,25025020303.0,West End,Downtown,N END/WATERFRONT
176163,608195,1800,2, TWO BEDROOM ONE BATHROOM APARTMENT 68 EDENFIELD AVE ,2BR/1BA Apartment - 68 Edenfield Ave, TWO BEDROOM ONE BATHROOM APARTMENT 68 EDENFIELD AVE ,,10/31/15 23:41,12:15.5,12:15.5,2,39,-71.1935,42.373,1800 2 2BR 1BA Apartment   68 Edenfield Ave -71.1935 42.373,WATERTOWN,Inner Core,370101.0,25017370101.0,,,
176164,608196,2450,1, ONE BEDROOM ONE BATHROOM APARTMENT 60 BRAINERD RD ,1BR/1BA Apartment - 60 Brainerd Rd, ONE BEDROOM ONE BATHROOM APARTMENT 60 BRAINERD RD ,,8/8/15 5:08,12:15.5,12:15.5,2,39,-71.1332,42.3476,2450 1 1BR 1BA Apartment   60 Brainerd Rd -71.1332 42.3476,BOSTON,Inner Core,704.0,25025000704.0,Allston,Allston,BRIGHTON
176165,608197,3000,2, TWO BEDROOM ONE BATHROOM APARTMENT 409 MARLBOROUGH ST ,2BR/1BA Apartment - 409 Marlborough St, TWO BEDROOM ONE BATHROOM APARTMENT 409 MARLBOROUGH ST ,,3/26/15 20:20,12:15.5,12:15.5,2,39,-71.0889,42.3504,3000 2 2BR 1BA Apartment   409 Marlborough St -71.0889 42.3504,BOSTON,Inner Core,10802.0,25025010802.0,Back Bay,Back Bay,BACK BAY B HILL
176166,608198,2375,2, TWO BEDROOM ONE BATHROOM APARTMENT SIX GARDEN CT ,2BR/1BA Apartment - 6 Garden Ct, TWO BEDROOM ONE BATHROOM APARTMENT SIX GARDEN CT ,,11/23/15 21:56,12:15.5,12:15.5,2,39,-71.13,42.3839,2375 2 2BR 1BA Apartment   6 Garden Ct -71.13 42.3839,CAMBRIDGE,Inner Core,354600.0,25017354600.0,Neighborhood Nine,,
176167,608199,1250,1, ONE BEDROOM ONE BATHROOM APARTMENT 25 HALL AVE ,1BR/1BA Apartment - 25 Hall Ave, ONE BEDROOM ONE BATHROOM APARTMENT 25 HALL AVE ,,10/15/15 23:56,12:15.5,12:15.5,2,39,-71.0057,42.2012,1250 1 1BR 1BA Apartment   25 Hall Ave -71.0057 42.2012,BRAINTREE,Maturing Suburbs,419800.0,25021419800.0,,,
176168,608200,1580,2, TWO BEDROOM ONE BATHROOM APARTMENT 5120 WASHINGTON ST ,2BR/1BA Apartment - 5120 Washington St, TWO BEDROOM ONE BATHROOM APARTMENT 5120 WASHINGTON ST ,,8/8/15 5:35,12:15.5,12:15.5,2,39,-71.155,42.2628,1580 2 2BR 1BA Apartment   5120 Washington St -71.155 42.2628,BOSTON,Inner Core,130406.0,25025130406.0,West Roxbury,West Roxbury,WEST ROXBURY
176169,608201,2850,2, TWO BEDROOM ONE BATHROOM APARTMENT 238 CAMBRIDGE ST ,2BR/1BA Apartment - 238 Cambridge St, TWO BEDROOM ONE BATHROOM APARTMENT 238 CAMBRIDGE ST ,,9/30/15 22:55,12:15.5,12:15.5,2,39,-71.0668,42.3611,2850 2 2BR 1BA Apartment   238 Cambridge St -71.0668 42.3611,BOSTON,Inner Core,20200.0,25025020200.0,Beacon Hill,Beacon Hill,BACK BAY B HILL
176171,608203,1519,0, 0 BEDROOM ONE BATHROOM APARTMENT 725 ADAMS ST ,0BR/1BA Apartment - 725 Adams St, 0 BEDROOM ONE BATHROOM APARTMENT 725 ADAMS ST ,,8/8/15 5:58,12:15.5,12:15.5,2,39,-71.056,42.2844,1519 0 0BR 1BA Apartment   725 Adams St -71.056 42.2844,BOSTON,Inner Core,100800.0,25025100800.0,Dorchester,Dorchester,NEPONSET F.C.
176172,608204,5500,5, FIVE BEDROOM FIVE BATHROOM APARTMENT 32 WILLIAM ST ,5BR/5BA Apartment - 32 William St, FIVE BEDROOM FIVE BATHROOM APARTMENT 32 WILLIAM ST ,,8/8/15 3:14,12:15.5,12:15.5,2,39,-71.2361,42.3573,5500 5 5BR 5BA Apartment   32 William St -71.2361 42.3573,NEWTON,Inner Core,374600.0,25017374600.0,,,
176173,608205,2450,1, ONE BEDROOM ONE BATHROOM APARTMENT 115 STREET STEPHEN ST ,1BR/1BA Apartment - 115 St Stephen St, ONE BEDROOM ONE BATHROOM APARTMENT 115 STREET STEPHEN ST ,,3/26/15 20:10,12:15.5,12:15.5,2,39,-71.0892,42.3414,2450 1 1BR 1BA Apartment   115 St Stephen St -71.0892 42.3414,BOSTON,Inner Core,10404.0,25025010404.0,Fenway,Fenway,FENWAY
176174,608206,4200,5, FIVE BEDROOM TWO BATHROOM APARTMENT 75 VERNDALE ST ,5BR/2BA Apartment - 75 Verndale St, FIVE BEDROOM TWO BATHROOM APARTMENT 75 VERNDALE ST ,,11/8/15 0:54,12:15.5,12:15.5,2,39,-71.1325,42.3469,4200 5 5BR 2BA Apartment   75 Verndale St -71.1325 42.3469,BROOKLINE,Inner Core,400300.0,25021400300.0,,,
176175,608207,1600,1, ONE BEDROOM ONE BATHROOM APARTMENT 36 BROCK ST ,1BR/1BA Apartment - 36 Brock St, ONE BEDROOM ONE BATHROOM APARTMENT 36 BROCK ST ,,12/7/15 15:46,12:15.5,12:15.5,2,39,-71.1606,42.3503,1600 1 1BR 1BA Apartment   36 Brock St -71.1606 42.3503,BOSTON,Inner Core,201.0,25025000201.0,Brighton,Brighton,BRIGHTON
176176,608208,1400,1, ONE BEDROOM ONE BATHROOM APARTMENT FOUR CHISWICK RD ,1BR/1BA Apartment - 4 Chiswick Rd, ONE BEDROOM ONE BATHROOM APARTMENT FOUR CHISWICK RD ,,11/29/15 13:49,12:15.5,12:15.5,2,39,-71.1507,42.3376,1400 1 1BR 1BA Apartment   4 Chiswick Rd -71.1507 42.3376,BOSTON,Inner Core,503.0,25025000503.0,Brighton,Brighton,BRIGHTON
176177,608209,1850,2, TWO BEDROOM ONE BATHROOM APARTMENT 85 RUTLAND ST ,2BR/1BA Apartment - 85 Rutland St, TWO BEDROOM ONE BATHROOM APARTMENT 85 RUTLAND ST ,,11/22/15 14:06,12:15.5,12:15.5,2,39,-71.2057,42.3706,1850 2 2BR 1BA Apartment   85 Rutland St -71.2057 42.3706,WATERTOWN,Inner Core,370102.0,25017370102.0,,,
176178,608210,2600,3, THREE BEDROOM ONE BATHROOM APARTMENT 127 FRANKLIN ST ,3BR/1BA Apartment - 127 Franklin St, THREE BEDROOM ONE BATHROOM APARTMENT 127 FRANKLIN ST ,,11/12/15 9:37,12:15.5,12:15.5,2,39,-71.1321,42.3604,2600 3 3BR 1BA Apartment   127 Franklin St -71.1321 42.3604,BOSTON,Inner Core,100.0,25025000100.0,Brighton,Allston,ALLSTON
176179,608211,1820,2, TWO BEDROOM ONE BATHROOM APARTMENT 1185 COMMONWEALTH AVENUE ,2BR/1BA Apartment - 1185 Commonwealth Avenue, TWO BEDROOM ONE BATHROOM APARTMENT 1185 COMMONWEALTH AVENUE ,,11/27/15 11:40,12:15.5,12:15.5,2,39,-71.129,42.3509,1820 2 2BR 1BA Apartment   1185 Commonwealth Avenue -71.129 42.3509,BOSTON,Inner Core,703.0,25025000703.0,Allston,Allston,BRIGHTON
176180,608212,6500,4, FOUR BEDROOM TWO FIVE BATHROOM APARTMENT 34 AVON ST ,4BR/2.5BA Apartment - 34 Avon St, FOUR BEDROOM TWO FIVE BATHROOM APARTMENT 34 AVON ST ,,12/3/15 12:29,12:15.5,12:15.5,2,39,-71.1324,42.3115,6500 4 4BR 2 5BA Apartment   34 Avon St -71.1324 42.3115,BOSTON,Inner Core,120105.0,25025120105.0,Jamaica Plain,Jamaica Plain,JP PONDSIDE
176181,608213,2040,2, TWO BEDROOM ONE BATHROOM APARTMENT FOUR VINAL ST ,2BR/1BA Apartment - 4 Vinal St, TWO BEDROOM ONE BATHROOM APARTMENT FOUR VINAL ST ,,11/26/15 9:04,12:15.5,12:15.5,2,39,-71.1388,42.346,2040 2 2BR 1BA Apartment   4 Vinal St -71.1388 42.346,BOSTON,Inner Core,701.0,25025000701.0,Brighton,Brighton,BRIGHTON
176182,608214,2895,3, THREE BEDROOM TWO BATHROOM APARTMENT 41 CHESTNUT HILL AVE ,3BR/2BA Apartment - 41 Chestnut Hill Ave, THREE BEDROOM TWO BATHROOM APARTMENT 41 CHESTNUT HILL AVE ,,11/11/15 2:36,12:15.5,12:15.5,2,39,-71.1535,42.3468,2895 3 3BR 2BA Apartment   41 Chestnut Hill Ave -71.1535 42.3468,BOSTON,Inner Core,402.0,25025000402.0,Brighton,Brighton,BRIGHTON
176183,608215,1900,1, ONE BEDROOM ONE BATHROOM APARTMENT 24 FAIRBANKS ST ,1BR/1BA Apartment - 24 Fairbanks St, ONE BEDROOM ONE BATHROOM APARTMENT 24 FAIRBANKS ST ,,11/11/15 3:02,12:15.5,12:15.5,2,39,-71.1314,42.339,1900 1 1BR 1BA Apartment   24 Fairbanks St -71.1314 42.339,BROOKLINE,Inner Core,400500.0,25021400500.0,,,
176184,608216,1650,0, 0 BEDROOM ONE BATHROOM APARTMENT 19 CHESTER ST ,0BR/1BA Apartment - 19 Chester St, 0 BEDROOM ONE BATHROOM APARTMENT 19 CHESTER ST ,,11/25/15 14:59,12:15.5,12:15.5,2,39,-71.1287,42.3514,1650 0 0BR 1BA Apartment   19 Chester St -71.1287 42.3514,BOSTON,Inner Core,703.0,25025000703.0,Allston,Allston,BRIGHTON
176185,608217,1650,2, TWO BEDROOM ONE BATHROOM APARTMENT 1400 COMMONWEALTH AVENUE ,2BR/1BA Apartment - 1400 Commonwealth Avenue, TWO BEDROOM ONE BATHROOM APARTMENT 1400 COMMONWEALTH AVENUE ,,11/17/15 16:17,12:15.5,12:15.5,2,39,-71.1379,42.3489,1650 2 2BR 1BA Apartment   1400 Commonwealth Avenue -71.1379 42.3489,BOSTON,Inner Core,602.0,25025000602.0,Brighton,Allston,BRIGHTON
176186,608218,1900,1, ONE BEDROOM ONE BATHROOM APARTMENT ,1BR/1BA Apartment, ONE BEDROOM ONE BATHROOM APARTMENT ,,3/28/15 0:32,12:15.5,12:15.5,2,39,-71.1216716,42.3507311,1900 1 1BR 1BA Apartment -71.1216716 42.3507311,BROOKLINE,Inner Core,400200.0,25021400200.0,,,
176187,608219,2245,2, TWO BEDROOM ONE BATHROOM APARTMENT 33 LANCASTER TERRACE ,2BR/1BA Apartment - 33 Lancaster Terrace, TWO BEDROOM ONE BATHROOM APARTMENT 33 LANCASTER TERRACE ,,3/26/15 20:15,12:15.6,12:15.6,2,39,-71.1317,42.3403,2245 2 2BR 1BA Apartment   33 Lancaster Terrace -71.1317 42.3403,BROOKLINE,Inner Core,400400.0,25021400400.0,,,
176188,608220,1550,1, ONE BEDROOM ONE BATHROOM APARTMENT SIX WEBLEY ST ,1BR/1BA Apartment - 6 Webley St, ONE BEDROOM ONE BATHROOM APARTMENT SIX WEBLEY ST ,,3/26/15 20:10,12:15.6,12:15.6,2,39,-71.1372,42.3525,1550 1 1BR 1BA Apartment   6 Webley St -71.1372 42.3525,BOSTON,Inner Core,602.0,25025000602.0,Brighton,Allston,BRIGHTON
176189,608221,2880,3, THREE BEDROOM ONE BATHROOM APARTMENT 1193 COMMONWEALTH AVENUE ,3BR/1BA Apartment - 1193 Commonwealth Avenue, THREE BEDROOM ONE BATHROOM APARTMENT 1193 COMMONWEALTH AVENUE ,,3/26/15 20:13,12:15.6,12:15.6,2,39,-71.1294,42.3509,2880 3 3BR 1BA Apartment   1193 Commonwealth Avenue -71.1294 42.3509,BOSTON,Inner Core,703.0,25025000703.0,Allston,Allston,BRIGHTON
176190,608222,1950,1, ONE BEDROOM ONE BATHROOM APARTMENT 59 PARKMAN ST ,1BR/1BA Apartment - 59 Parkman St, ONE BEDROOM ONE BATHROOM APARTMENT 59 PARKMAN ST ,,11/11/15 14:57,12:15.6,12:15.6,2,39,-71.1174,42.3447,1950 1 1BR 1BA Apartment   59 Parkman St -71.1174 42.3447,BROOKLINE,Inner Core,400200.0,25021400200.0,,,
176191,608223,1970,1, ONE BEDROOM ONE BATHROOM APARTMENT ONE REPTON PL ,1BR/1BA Apartment - 1 Repton Pl, ONE BEDROOM ONE BATHROOM APARTMENT ONE REPTON PL ,,8/8/15 5:54,12:15.6,12:15.6,2,39,-71.2111,42.3678,1970 1 1BR 1BA Apartment   1 Repton Pl -71.2111 42.3678,WATERTOWN,Inner Core,370102.0,25017370102.0,,,
176192,608224,2150,1, ONE BEDROOM ONE FIVE BATHROOM APARTMENT 298 INDEPENDENCE DR ,1BR/1.5BA Apartment - 298 Independence Dr, ONE BEDROOM ONE FIVE BATHROOM APARTMENT 298 INDEPENDENCE DR ,,8/8/15 6:54,12:15.6,12:15.6,2,39,-71.1577,42.2968,2150 1 1BR 1 5BA Apartment   298 Independence Dr -71.1577 42.2968,BOSTON,Inner Core,130100.0,25025130100.0,West Roxbury,West Roxbury,WEST ROXBURY
176193,608225,2700,3, THREE BEDROOM ONE BATHROOM APARTMENT 50 CHESTER ST ,3BR/1BA Apartment - 50 Chester St, THREE BEDROOM ONE BATHROOM APARTMENT 50 CHESTER ST ,,6/26/15 21:53,12:15.6,12:15.6,2,39,-71.1284,42.3525,2700 3 3BR 1BA Apartment   50 Chester St -71.1284 42.3525,BOSTON,Inner Core,703.0,25025000703.0,Allston,Allston,BRIGHTON
176194,608226,2500,3, THREE BEDROOM ONE BATHROOM APARTMENT 71 FOSTER ST ,3BR/1BA Apartment - 71 Foster St, THREE BEDROOM ONE BATHROOM APARTMENT 71 FOSTER ST ,,6/26/15 21:48,12:15.6,12:15.6,2,39,-71.1576,42.3486,2500 3 3BR 1BA Apartment   71 Foster St -71.1576 42.3486,BOSTON,Inner Core,402.0,25025000402.0,Brighton,Brighton,BRIGHTON
176195,608227,1450,0, 0 BEDROOM ONE BATHROOM APARTMENT 63 WOODSTOCK AVE ,0BR/1BA Apartment - 63 Woodstock Ave, 0 BEDROOM ONE BATHROOM APARTMENT 63 WOODSTOCK AVE ,,9/12/15 23:14,12:15.6,12:15.6,2,39,-71.1368,42.3463,1450 0 0BR 1BA Apartment   63 Woodstock Ave -71.1368 42.3463,BOSTON,Inner Core,701.0,25025000701.0,Brighton,Brighton,BRIGHTON
176196,608228,5200,4, FOUR BEDROOM TWO BATHROOM APARTMENT 88 BROWNE ST ,4BR/2BA Apartment - 88 Browne St, FOUR BEDROOM TWO BATHROOM APARTMENT 88 BROWNE ST ,,10/22/15 0:17,12:15.6,12:15.6,2,39,-71.1197,42.3458,5200 4 4BR 2BA Apartment   88 Browne St -71.1197 42.3458,BROOKLINE,Inner Core,400200.0,25021400200.0,,,
176197,608229,1300,2, TWO BEDROOM ONE BATHROOM APARTMENT 15 PEARL ST ,2BR/1BA Apartment - 15 Pearl St, TWO BEDROOM ONE BATHROOM APARTMENT 15 PEARL ST ,,10/16/15 0:26,12:15.6,12:15.6,2,39,-71.5633,42.3493,1300 2 2BR 1BA Apartment   15 Pearl St -71.5633 42.3493,MARLBOROUGH,Regional Urban Centers,321500.0,25017321500.0,,,
176198,608230,3300,2, TWO BEDROOM ONE BATHROOM APARTMENT 34 WESTON RD ,2BR/1BA Apartment - 34 Weston Rd, TWO BEDROOM ONE BATHROOM APARTMENT 34 WESTON RD ,,8/8/15 6:54,12:15.6,12:15.6,2,39,-71.2968,42.2941,3300 2 2BR 1BA Apartment   34 Weston Rd -71.2968 42.2941,WELLESLEY,Maturing Suburbs,404400.0,25021404400.0,,,
176199,608231,3200,4, FOUR BEDROOM ONE BATHROOM APARTMENT 1682 COMMONWEALTH AVENUE ,4BR/1BA Apartment - 1682 Commonwealth Avenue, FOUR BEDROOM ONE BATHROOM APARTMENT 1682 COMMONWEALTH AVENUE ,,6/26/15 21:53,12:15.6,12:15.6,2,39,-71.1455,42.3415,3200 4 4BR 1BA Apartment   1682 Commonwealth Avenue -71.1455 42.3415,BOSTON,Inner Core,504.0,25025000504.0,Brighton,Brighton,BRIGHTON
176200,608232,1775,1, ONE BEDROOM ONE BATHROOM APARTMENT 64 ALLSTON ST ,1BR/1BA Apartment - 64 Allston St, ONE BEDROOM ONE BATHROOM APARTMENT 64 ALLSTON ST ,,10/11/15 0:54,12:15.6,12:15.6,2,39,-71.1356,42.3518,1775 1 1BR 1BA Apartment   64 Allston St -71.1356 42.3518,BOSTON,Inner Core,602.0,25025000602.0,Brighton,Allston,BRIGHTON
176201,608233,1750,2, TWO BEDROOM ONE BATHROOM APARTMENT 224 WASHINGTON ST ,2BR/1BA Apartment - 224 Washington St, TWO BEDROOM ONE BATHROOM APARTMENT 224 WASHINGTON ST ,,8/28/15 21:40,12:15.6,12:15.6,2,39,-71.1486,42.3469,1750 2 2BR 1BA Apartment   224 Washington St -71.1486 42.3469,BOSTON,Inner Core,401.0,25025000401.0,Brighton,Brighton,BRIGHTON
176202,608234,3605,4, FOUR BEDROOM ONE BATHROOM APARTMENT 137 CHISWICK RD ,4BR/1BA Apartment - 137 Chiswick Rd, FOUR BEDROOM ONE BATHROOM APARTMENT 137 CHISWICK RD ,,10/16/15 0:18,12:15.6,12:15.6,2,39,-71.1533,42.3408,3605 4 4BR 1BA Apartment   137 Chiswick Rd -71.1533 42.3408,BOSTON,Inner Core,401.0,25025000401.0,Brighton,Brighton,BRIGHTON
176203,608235,1895,2, TWO BEDROOM TWO BATHROOM APARTMENT 134 PLYMOUTH DR ,2BR/2BA Apartment - 134 Plymouth Dr, TWO BEDROOM TWO BATHROOM APARTMENT 134 PLYMOUTH DR ,,10/31/15 23:04,12:15.6,12:15.6,2,39,-71.1919,42.1632,1895 2 2BR 2BA Apartment   134 Plymouth Dr -71.1919 42.1632,NORWOOD,Regional Urban Centers,413500.0,25021413500.0,,,
176204,608236,2100,2, TWO BEDROOM ONE BATHROOM APARTMENT 81 WINCHESTER ST ,2BR/1BA Apartment - 81 Winchester St, TWO BEDROOM ONE BATHROOM APARTMENT 81 WINCHESTER ST ,,11/17/15 14:57,12:19.3,12:19.3,2,39,-71.1276,42.3432,2100 2 2BR 1BA Apartment   81 Winchester St -71.1276 42.3432,BROOKLINE,Inner Core,400400.0,25021400400.0,,,
176205,608237,1650,1, ONE BEDROOM ONE BATHROOM APARTMENT 224 KELTON ST ,1BR/1BA Apartment - 224 Kelton St, ONE BEDROOM ONE BATHROOM APARTMENT 224 KELTON ST ,,8/8/15 6:12,12:19.3,12:19.3,2,39,-71.1367,42.347,1650 1 1BR 1BA Apartment   224 Kelton St -71.1367 42.347,BOSTON,Inner Core,701.0,25025000701.0,Brighton,Allston,BRIGHTON
176206,608238,2200,3, THREE BEDROOM ONE BATHROOM APARTMENT 32 HARRIET ST ,3BR/1BA Apartment - 32 Harriet St, THREE BEDROOM ONE BATHROOM APARTMENT 32 HARRIET ST ,,11/18/15 3:15,12:19.3,12:19.3,2,39,-71.1557,42.3531,2200 3 3BR 1BA Apartment   32 Harriet St -71.1557 42.3531,BOSTON,Inner Core,202.0,25025000202.0,Brighton,Brighton,BRIGHTON
176207,608239,1650,1, ONE BEDROOM ONE BATHROOM APARTMENT 11 BARROWS ST ,1BR/1BA Apartment - 11 Barrows St, ONE BEDROOM ONE BATHROOM APARTMENT 11 BARROWS ST ,,3/26/15 20:21,12:19.3,12:19.3,2,39,-71.1381,42.3526,1650 1 1BR 1BA Apartment   11 Barrows St -71.1381 42.3526,BOSTON,Inner Core,602.0,25025000602.0,Brighton,Allston,BRIGHTON
176208,608240,3600,4, FOUR BEDROOM TWO BATHROOM APARTMENT 93 WILLISTON RD ,4BR/2BA Apartment - 93 Williston Rd, FOUR BEDROOM TWO BATHROOM APARTMENT 93 WILLISTON RD ,,10/4/15 1:25,12:19.3,12:19.3,2,39,-71.1416,42.3412,3600 4 4BR 2BA Apartment   93 Williston Rd -71.1416 42.3412,BOSTON,Inner Core,504.0,25025000504.0,Brighton,Brighton,BRIGHTON
176209,608241,1700,1, ONE BEDROOM ONE BATHROOM APARTMENT 1151 COMMONWEALTH AVENUE ,1BR/1BA Apartment - 1151 Commonwealth Avenue, ONE BEDROOM ONE BATHROOM APARTMENT 1151 COMMONWEALTH AVENUE ,,10/18/15 3:51,12:19.3,12:19.3,2,39,-71.1275,42.3508,1700 1 1BR 1BA Apartment   1151 Commonwealth Avenue -71.1275 42.3508,BOSTON,Inner Core,703.0,25025000703.0,Allston,Allston,BRIGHTON
176210,608242,1650,1, ONE BEDROOM ONE BATHROOM APARTMENT 1619 COMMONWEALTH AVENUE ,1BR/1BA Apartment - 1619 Commonwealth Avenue, ONE BEDROOM ONE BATHROOM APARTMENT 1619 COMMONWEALTH AVENUE ,,12/3/15 15:08,12:19.3,12:19.3,2,39,-71.1438,42.3435,1650 1 1BR 1BA Apartment   1619 Commonwealth Avenue -71.1438 42.3435,BOSTON,Inner Core,401.0,25025000401.0,Brighton,Brighton,BRIGHTON
176211,608243,2500,3, THREE BEDROOM ONE BATHROOM APARTMENT 17 E MILTON RD ,3BR/1BA Apartment - 17 E Milton Rd, THREE BEDROOM ONE BATHROOM APARTMENT 17 E MILTON RD ,,11/23/15 0:31,12:19.3,12:19.3,2,39,-71.1251,42.3294,2500 3 3BR 1BA Apartment   17 E Milton Rd -71.1251 42.3294,BROOKLINE,Inner Core,401000.0,25021401000.0,,,
176212,608244,3000,3, THREE BEDROOM TWO BATHROOM APARTMENT 19 VERNDALE ST ,3BR/2BA Apartment - 19 Verndale St, THREE BEDROOM TWO BATHROOM APARTMENT 19 VERNDALE ST ,,11/5/15 14:58,12:19.3,12:19.3,2,39,-71.1328,42.3467,3000 3 3BR 2BA Apartment   19 Verndale St -71.1328 42.3467,BROOKLINE,Inner Core,400300.0,25021400300.0,,,
176213,608245,1795,1, ONE BEDROOM ONE BATHROOM APARTMENT 208 WINTHROP RD ,1BR/1BA Apartment - 208 Winthrop Rd, ONE BEDROOM ONE BATHROOM APARTMENT 208 WINTHROP RD ,,3/26/15 20:11,12:19.3,12:19.3,2,39,-71.1368,42.3384,1795 1 1BR 1BA Apartment   208 Winthrop Rd -71.1368 42.3384,BROOKLINE,Inner Core,400500.0,25021400500.0,,,
176214,608246,1700,2, TWO BEDROOM ONE BATHROOM APARTMENT 32 WAVERLY ST ,2BR/1BA Apartment - 32 Waverly St, TWO BEDROOM ONE BATHROOM APARTMENT 32 WAVERLY ST ,,11/5/15 4:47,12:19.3,12:19.3,2,39,-71.1437,42.3608,1700 2 2BR 1BA Apartment   32 Waverly St -71.1437 42.3608,BOSTON,Inner Core,100.0,25025000100.0,Brighton,Brighton,ALLSTON
176215,608247,4000,5, FIVE BEDROOM TWO BATHROOM APARTMENT 91 VERNDALE ST ,5BR/2BA Apartment - 91 Verndale St, FIVE BEDROOM TWO BATHROOM APARTMENT 91 VERNDALE ST ,,8/8/15 3:31,12:19.3,12:19.3,2,39,-71.1329,42.3468,4000 5 5BR 2BA Apartment   91 Verndale St -71.1329 42.3468,BROOKLINE,Inner Core,400300.0,25021400300.0,,,
