,id,ask,bedrooms,title,original_title,cl_title,address,post_at,created_at,updated_at,source_id,survey_id,latitude,longitude,uniqueid,town,comm_type,tract10,ct10_id,neighborhood_01,neighborhood_02,neighborhood_03
178337,610369,6000,7, SEVEN BEDROOM THREE BATHROOM HOUSE 24 ASHFORD ST ,7BR/3BA House - 24 Ashford St, SEVEN BEDROOM THREE BATHROOM HOUSE 24 ASHFORD ST ,,11/20/15 8:46,15:02.0,15:02.0,2,39,-71.1284,42.3546,6000 7 7BR 3BA House   24 Ashford St -71.1284 42.3546,BOSTON,Inner Core,802.0,25025000802.0,Allston,Allston,ALLSTON
178338,610370,2950,3, THREE BEDROOM ONE BATHROOM APARTMENT 1381 COMMONWEALTH AVENUE ,3BR/1BA Apartment - 1381 Commonwealth Avenue, THREE BEDROOM ONE BATHROOM APARTMENT 1381 COMMONWEALTH AVENUE ,,10/2/15 15:31,15:02.0,15:02.0,2,39,-71.1374,42.3486,2950 3 3BR 1BA Apartment   1381 Commonwealth Avenue -71.1374 42.3486,BOSTON,Inner Core,701.0,25025000701.0,Brighton,Allston,BRIGHTON
178339,610371,2375,2, TWO BEDROOM ONE BATHROOM APARTMENT 130 ENGLEWOOD AVE ,2BR/1BA Apartment - 130 Englewood Ave, TWO BEDROOM ONE BATHROOM APARTMENT 130 ENGLEWOOD AVE ,,3/11/15 16:11,15:02.0,15:02.0,2,39,-71.1511,42.3372,2375 2 2BR 1BA Apartment   130 Englewood Ave -71.1511 42.3372,BOSTON,Inner Core,502.0,25025000502.0,Brighton,Brighton,BRIGHTON
178340,610372,3800,5, FIVE BEDROOM THREE BATHROOM APARTMENT 15 WADSWORTH ST ,5BR/3BA Apartment - 15 Wadsworth St, FIVE BEDROOM THREE BATHROOM APARTMENT 15 WADSWORTH ST ,,3/26/15 20:13,15:02.0,15:02.0,2,39,-71.1263,42.3549,3800 5 5BR 3BA Apartment   15 Wadsworth St -71.1263 42.3549,BOSTON,Inner Core,802.0,25025000802.0,Allston,Allston,ALLSTON
178341,610373,4300,4, FOUR BEDROOM TWO BATHROOM APARTMENT 15 STREET LUKES RD ,4BR/2BA Apartment - 15 St Lukes Rd, FOUR BEDROOM TWO BATHROOM APARTMENT 15 STREET LUKES RD ,,11/4/15 8:45,15:02.0,15:02.0,2,39,-71.1273,42.3517,4300 4 4BR 2BA Apartment   15 St Lukes Rd -71.1273 42.3517,BOSTON,Inner Core,703.0,25025000703.0,Allston,Allston,BRIGHTON
178342,610374,2700,3, THREE BEDROOM ONE BATHROOM APARTMENT 142 SUTHERLAND RD ,3BR/1BA Apartment - 142 Sutherland Rd, THREE BEDROOM ONE BATHROOM APARTMENT 142 SUTHERLAND RD ,,8/8/15 3:16,15:02.0,15:02.0,2,39,-71.1475,42.341,2700 3 3BR 1BA Apartment   142 Sutherland Rd -71.1475 42.341,BOSTON,Inner Core,503.0,25025000503.0,Brighton,Brighton,BRIGHTON
178343,610375,2900,4, FOUR BEDROOM ONE BATHROOM APARTMENT 781 BOYLSTON ST ,4BR/1BA Apartment - 781 Boylston St, FOUR BEDROOM ONE BATHROOM APARTMENT 781 BOYLSTON ST ,,8/7/15 17:15,15:02.0,15:02.0,2,39,-71.1458,42.3266,2900 4 4BR 1BA Apartment   781 Boylston St -71.1458 42.3266,BROOKLINE,Inner Core,401100.0,25021401100.0,,,
178344,610376,2800,3, THREE BEDROOM ONE BATHROOM APARTMENT 119 WINTHROP RD ,3BR/1BA Apartment - 119 Winthrop Rd, THREE BEDROOM ONE BATHROOM APARTMENT 119 WINTHROP RD ,,12/3/15 15:33,15:02.0,15:02.0,2,39,-71.1333,42.3373,2800 3 3BR 1BA Apartment   119 Winthrop Rd -71.1333 42.3373,BROOKLINE,Inner Core,400500.0,25021400500.0,,,
178345,610377,2900,3, THREE BEDROOM ONE BATHROOM APARTMENT 20 REEDSDALE ST ,3BR/1BA Apartment - 20 Reedsdale St, THREE BEDROOM ONE BATHROOM APARTMENT 20 REEDSDALE ST ,,9/22/15 14:40,15:02.0,15:02.0,2,39,-71.1296,42.3516,2900 3 3BR 1BA Apartment   20 Reedsdale St -71.1296 42.3516,BOSTON,Inner Core,703.0,25025000703.0,Allston,Allston,BRIGHTON
178346,610378,2800,4, FOUR BEDROOM TWO BATHROOM APARTMENT 43 RAYMOND ST ,4BR/2BA Apartment - 43 Raymond St, FOUR BEDROOM TWO BATHROOM APARTMENT 43 RAYMOND ST ,,8/8/15 3:44,15:02.0,15:02.0,2,39,-71.1323,42.3612,2800 4 4BR 2BA Apartment   43 Raymond St -71.1323 42.3612,BOSTON,Inner Core,100.0,25025000100.0,Brighton,Allston,ALLSTON
178347,610379,2100,2, TWO BEDROOM ONE BATHROOM APARTMENT 47 GORDON ST ,2BR/1BA Apartment - 47 Gordon St, TWO BEDROOM ONE BATHROOM APARTMENT 47 GORDON ST ,,5/21/15 16:14,15:02.0,15:02.0,2,39,-71.1401,42.3515,2100 2 2BR 1BA Apartment   47 Gordon St -71.1401 42.3515,BOSTON,Inner Core,602.0,25025000602.0,Brighton,Allston,BRIGHTON
178348,610380,1525,0, 0 BEDROOM ONE BATHROOM APARTMENT SIX WALBRIDGE ST ,0BR/1BA Apartment - 6 Walbridge St, 0 BEDROOM ONE BATHROOM APARTMENT SIX WALBRIDGE ST ,,10/3/15 15:39,15:02.0,15:02.0,2,39,-71.1358,42.3478,1525 0 0BR 1BA Apartment   6 Walbridge St -71.1358 42.3478,BOSTON,Inner Core,701.0,25025000701.0,Brighton,Allston,BRIGHTON
178349,610381,3800,5, FIVE BEDROOM TWO BATHROOM APARTMENT 36 GORDON ST ,5BR/2BA Apartment - 36 Gordon St, FIVE BEDROOM TWO BATHROOM APARTMENT 36 GORDON ST ,,9/13/15 17:55,15:02.0,15:02.0,2,39,-71.1399,42.3521,3800 5 5BR 2BA Apartment   36 Gordon St -71.1399 42.3521,BOSTON,Inner Core,602.0,25025000602.0,Brighton,Allston,BRIGHTON
178350,610382,2600,3, THREE BEDROOM ONE BATHROOM APARTMENT 127 GLENVILLE AVE ,3BR/1BA Apartment - 127 Glenville Ave, THREE BEDROOM ONE BATHROOM APARTMENT 127 GLENVILLE AVE ,,8/7/15 17:16,15:02.0,15:02.0,2,39,-71.1366,42.349,2600 3 3BR 1BA Apartment   127 Glenville Ave -71.1366 42.349,BOSTON,Inner Core,701.0,25025000701.0,Brighton,Allston,BRIGHTON
178351,610383,2500,1, ONE BEDROOM ONE FIVE BATHROOM CONDO 12 DEAN RD ,1BR/1.5BA Condo - 12 Dean Rd, ONE BEDROOM ONE FIVE BATHROOM CONDO 12 DEAN RD ,,10/27/15 18:01,15:02.0,15:02.0,2,39,-71.1418,42.3373,2500 1 1BR 1 5BA Condo   12 Dean Rd -71.1418 42.3373,BROOKLINE,Inner Core,400600.0,25021400600.0,,,
178352,610384,2499,2, TWO BEDROOM TWO BATHROOM HOUSE 40 WILLIAMS ST ,2BR/2BA House - 40 Williams St, TWO BEDROOM TWO BATHROOM HOUSE 40 WILLIAMS ST ,,10/7/15 17:56,15:02.0,15:02.0,2,39,-71.1262,42.3433,2499 2 2BR 2BA House   40 Williams St -71.1262 42.3433,BROOKLINE,Inner Core,400400.0,25021400400.0,,,
178353,610385,4995,6, SIX BEDROOM TWO BATHROOM APARTMENT 152 WINCHESTER ST ,6BR/2BA Apartment - 152 Winchester St, SIX BEDROOM TWO BATHROOM APARTMENT 152 WINCHESTER ST ,,11/18/15 2:40,15:02.0,15:02.0,2,39,-71.1302,42.3445,4995 6 6BR 2BA Apartment   152 Winchester St -71.1302 42.3445,BROOKLINE,Inner Core,400400.0,25021400400.0,,,
178354,610386,1650,1, ONE BEDROOM ONE BATHROOM APARTMENT 80 GORDON ST ,1BR/1BA Apartment - 80 Gordon St, ONE BEDROOM ONE BATHROOM APARTMENT 80 GORDON ST ,,7/24/15 17:37,15:05.6,15:05.6,2,39,-71.1397,42.35,1650 1 1BR 1BA Apartment   80 Gordon St -71.1397 42.35,BOSTON,Inner Core,602.0,25025000602.0,Brighton,Allston,BRIGHTON
178355,610387,2100,3, THREE BEDROOM ONE BATHROOM APARTMENT 50 RIDGEMONT ST ,3BR/1BA Apartment - 50 Ridgemont St, THREE BEDROOM ONE BATHROOM APARTMENT 50 RIDGEMONT ST ,,9/11/15 17:44,15:05.6,15:05.6,2,39,-71.1426,42.3509,2100 3 3BR 1BA Apartment   50 Ridgemont St -71.1426 42.3509,BOSTON,Inner Core,602.0,25025000602.0,Brighton,Allston,BRIGHTON
178356,610388,2250,3, THREE BEDROOM ONE BATHROOM APARTMENT 35 BOTHWELL RD ,3BR/1BA Apartment - 35 Bothwell Rd, THREE BEDROOM ONE BATHROOM APARTMENT 35 BOTHWELL RD ,,5/23/15 16:23,15:05.6,15:05.6,2,39,-71.1615,42.3535,2250 3 3BR 1BA Apartment   35 Bothwell Rd -71.1615 42.3535,BOSTON,Inner Core,201.0,25025000201.0,Brighton,Brighton,BRIGHTON
178357,610389,1950,2, TWO BEDROOM ONE BATHROOM APARTMENT 15 CAROL AVE ,2BR/1BA Apartment - 15 Carol Ave, TWO BEDROOM ONE BATHROOM APARTMENT 15 CAROL AVE ,,10/24/15 0:50,15:05.6,15:05.6,2,39,-71.1405,42.3448,1950 2 2BR 1BA Apartment   15 Carol Ave -71.1405 42.3448,BOSTON,Inner Core,504.0,25025000504.0,Brighton,Brighton,BRIGHTON
178358,610390,3900,5, FIVE BEDROOM THREE BATHROOM APARTMENT 86 LINDEN ST ,5BR/3BA Apartment - 86 Linden St, FIVE BEDROOM THREE BATHROOM APARTMENT 86 LINDEN ST ,,3/26/15 20:17,15:05.7,15:05.7,2,39,-71.13,42.3519,3900 5 5BR 3BA Apartment   86 Linden St -71.13 42.3519,BOSTON,Inner Core,703.0,25025000703.0,Allston,Allston,BRIGHTON
178359,610391,2650,3, THREE BEDROOM ONE BATHROOM APARTMENT 435 CAMBRIDGE ST ,3BR/1BA Apartment - 435 Cambridge St, THREE BEDROOM ONE BATHROOM APARTMENT 435 CAMBRIDGE ST ,,3/25/15 16:05,15:05.7,15:05.7,2,39,-71.1346,42.3549,2650 3 3BR 1BA Apartment   435 Cambridge St -71.1346 42.3549,BOSTON,Inner Core,802.0,25025000802.0,Allston,Allston,ALLSTON
178360,610392,3600,4, FOUR BEDROOM ONE BATHROOM APARTMENT 221 CHESTNUT HILL AVE ,4BR/1BA Apartment - 221 Chestnut Hill Ave, FOUR BEDROOM ONE BATHROOM APARTMENT 221 CHESTNUT HILL AVE ,,8/7/15 17:26,15:05.7,15:05.7,2,39,-71.1556,42.3405,3600 4 4BR 1BA Apartment   221 Chestnut Hill Ave -71.1556 42.3405,BOSTON,Inner Core,402.0,25025000402.0,Brighton,Brighton,BRIGHTON
178361,610393,3200,3, THREE BEDROOM TWO BATHROOM APARTMENT 139 NOTTINGHILL RD ,3BR/2BA Apartment - 139 Nottinghill Rd, THREE BEDROOM TWO BATHROOM APARTMENT 139 NOTTINGHILL RD ,,8/13/15 17:50,15:05.7,15:05.7,2,39,-71.1494,42.344,3200 3 3BR 2BA Apartment   139 Nottinghill Rd -71.1494 42.344,BOSTON,Inner Core,401.0,25025000401.0,Brighton,Brighton,BRIGHTON
178362,610394,2295,3, THREE BEDROOM ONE BATHROOM APARTMENT 18 SHEPARD ST ,3BR/1BA Apartment - 18 Shepard St, THREE BEDROOM ONE BATHROOM APARTMENT 18 SHEPARD ST ,,9/22/15 15:18,15:05.7,15:05.7,2,39,-71.15,42.3472,2295 3 3BR 1BA Apartment   18 Shepard St -71.15 42.3472,BOSTON,Inner Core,401.0,25025000401.0,Brighton,Brighton,BRIGHTON
178363,610395,2025,2, TWO BEDROOM ONE BATHROOM APARTMENT 255 KELTON ST ,2BR/1BA Apartment - 255 Kelton St, TWO BEDROOM ONE BATHROOM APARTMENT 255 KELTON ST ,,5/26/15 16:32,15:05.7,15:05.7,2,39,-71.1354,42.346,2025 2 2BR 1BA Apartment   255 Kelton St -71.1354 42.346,BOSTON,Inner Core,701.0,25025000701.0,Brighton,Brighton,BRIGHTON
178364,610396,2500,3, THREE BEDROOM ONE BATHROOM APARTMENT 15 SCOTTFIELD RD ,3BR/1BA Apartment - 15 Scottfield Rd, THREE BEDROOM ONE BATHROOM APARTMENT 15 SCOTTFIELD RD ,,3/30/15 21:51,15:05.7,15:05.7,2,39,-71.1367,42.3473,2500 3 3BR 1BA Apartment   15 Scottfield Rd -71.1367 42.3473,BOSTON,Inner Core,701.0,25025000701.0,Brighton,Allston,BRIGHTON
178365,610397,2200,2, TWO BEDROOM ONE BATHROOM APARTMENT 28 BRAINERD RD ,2BR/1BA Apartment - 28 Brainerd Rd, TWO BEDROOM ONE BATHROOM APARTMENT 28 BRAINERD RD ,,8/20/15 17:10,15:05.7,15:05.7,2,39,-71.1312,42.3484,2200 2 2BR 1BA Apartment   28 Brainerd Rd -71.1312 42.3484,BOSTON,Inner Core,704.0,25025000704.0,Allston,Allston,BRIGHTON
178366,610398,2450,2, TWO BEDROOM ONE FIVE BATHROOM APARTMENT 55 SEWALL AVE ,2BR/1.5BA Apartment - 55 Sewall Ave, TWO BEDROOM ONE FIVE BATHROOM APARTMENT 55 SEWALL AVE ,,10/16/15 17:26,15:05.7,15:05.7,2,39,-71.1189,42.3419,2450 2 2BR 1 5BA Apartment   55 Sewall Ave -71.1189 42.3419,BROOKLINE,Inner Core,400200.0,25021400200.0,,,
178367,610399,3000,3, THREE BEDROOM ONE BATHROOM APARTMENT 1536 COMMONWEALTH AVENUE ,3BR/1BA Apartment - 1536 Commonwealth Avenue, THREE BEDROOM ONE BATHROOM APARTMENT 1536 COMMONWEALTH AVENUE ,,10/29/15 20:27,15:05.7,15:05.7,2,39,-71.1414,42.345,3000 3 3BR 1BA Apartment   1536 Commonwealth Avenue -71.1414 42.345,BOSTON,Inner Core,504.0,25025000504.0,Brighton,Brighton,BRIGHTON
178368,610400,1930,1, ONE BEDROOM ONE BATHROOM APARTMENT 17 FAIRBANKS ST ,1BR/1BA Apartment - 17 Fairbanks St, ONE BEDROOM ONE BATHROOM APARTMENT 17 FAIRBANKS ST ,,7/28/15 18:45,15:05.7,15:05.7,2,39,-71.1315,42.3386,1930 1 1BR 1BA Apartment   17 Fairbanks St -71.1315 42.3386,BROOKLINE,Inner Core,400500.0,25021400500.0,,,
178369,610401,4695,5, FIVE BEDROOM TWO BATHROOM HOUSE 59 ALGONQUIN RD ,5BR/2BA House - 59 Algonquin Rd, FIVE BEDROOM TWO BATHROOM HOUSE 59 ALGONQUIN RD ,,11/10/15 17:41,15:05.7,15:05.7,2,39,-71.1704,42.3412,4695 5 5BR 2BA House   59 Algonquin Rd -71.1704 42.3412,NEWTON,Inner Core,373500.0,25017373500.0,,,
178370,610402,1800,2, TWO BEDROOM ONE BATHROOM APARTMENT 65 ROGERS PARK AVE ,2BR/1BA Apartment - 65 Rogers Park Ave, TWO BEDROOM ONE BATHROOM APARTMENT 65 ROGERS PARK AVE ,,11/7/15 22:06,15:05.7,15:05.7,2,39,-71.1585,42.3465,1800 2 2BR 1BA Apartment   65 Rogers Park Ave -71.1585 42.3465,BOSTON,Inner Core,402.0,25025000402.0,Brighton,Brighton,BRIGHTON
178371,612774,1175,1, ONE BEDROOM ONE BATHROOM APARTMENT ,1BR/1BA Apartment, ONE BEDROOM ONE BATHROOM APARTMENT ,,12/6/15 14:43,18:06.4,18:06.4,2,39,-70.9422047,42.0832962,1175 1 1BR 1BA Apartment -70.9422047 42.0832962,WHITMAN,Developing Suburbs,521102.0,25023521102.0,,,
178372,610403,2550,3, THREE BEDROOM ONE BATHROOM APARTMENT 1285 COMMONWEALTH AVENUE ,3BR/1BA Apartment - 1285 Commonwealth Avenue, THREE BEDROOM ONE BATHROOM APARTMENT 1285 COMMONWEALTH AVENUE ,,9/22/15 14:50,15:05.7,15:05.7,2,39,-71.1334,42.3494,2550 3 3BR 1BA Apartment   1285 Commonwealth Avenue -71.1334 42.3494,BOSTON,Inner Core,704.0,25025000704.0,Allston,Allston,BRIGHTON
178373,610404,1795,2, TWO BEDROOM ONE BATHROOM APARTMENT 69 COOLIDGE RD ,2BR/1BA Apartment - 69 Coolidge Rd, TWO BEDROOM ONE BATHROOM APARTMENT 69 COOLIDGE RD ,,11/14/15 23:13,15:05.7,15:05.7,2,39,-71.1313,42.3589,1795 2 2BR 1BA Apartment   69 Coolidge Rd -71.1313 42.3589,BOSTON,Inner Core,100.0,25025000100.0,Brighton,Allston,ALLSTON
178374,610405,1950,2, TWO BEDROOM ONE BATHROOM APARTMENT 1450 COMMONWEALTH AVENUE ,2BR/1BA Apartment - 1450 Commonwealth Avenue, TWO BEDROOM ONE BATHROOM APARTMENT 1450 COMMONWEALTH AVENUE ,,3/26/15 20:15,15:05.7,15:05.7,2,39,-71.1401,42.3477,1950 2 2BR 1BA Apartment   1450 Commonwealth Avenue -71.1401 42.3477,BOSTON,Inner Core,701.0,25025000701.0,Brighton,Allston,BRIGHTON
178375,610406,2150,2, TWO BEDROOM ONE BATHROOM APARTMENT 174 WINTHROP RD ,2BR/1BA Apartment - 174 Winthrop Rd, TWO BEDROOM ONE BATHROOM APARTMENT 174 WINTHROP RD ,,11/8/15 8:46,15:05.7,15:05.7,2,39,-71.1356,42.3379,2150 2 2BR 1BA Apartment   174 Winthrop Rd -71.1356 42.3379,BROOKLINE,Inner Core,400500.0,25021400500.0,,,
178376,610407,1750,2, TWO BEDROOM ONE BATHROOM APARTMENT 100 LINDEN ST ,2BR/1BA Apartment - 100 Linden St, TWO BEDROOM ONE BATHROOM APARTMENT 100 LINDEN ST ,,3/26/15 20:25,15:05.7,15:05.7,2,39,-71.1298,42.3511,1750 2 2BR 1BA Apartment   100 Linden St -71.1298 42.3511,BOSTON,Inner Core,703.0,25025000703.0,Allston,Allston,BRIGHTON
178377,610408,2250,4, FOUR BEDROOM ONE BATHROOM APARTMENT 23 LAUREL ST ,4BR/1BA Apartment - 23 Laurel St, FOUR BEDROOM ONE BATHROOM APARTMENT 23 LAUREL ST ,,8/27/15 22:29,15:05.7,15:05.7,2,39,-71.1646,42.3659,2250 4 4BR 1BA Apartment   23 Laurel St -71.1646 42.3659,WATERTOWN,Inner Core,370300.0,25017370300.0,,,
178378,610409,3500,3, THREE BEDROOM TWO BATHROOM APARTMENT 1168 COMMONWEALTH AVENUE ,3BR/2BA Apartment - 1168 Commonwealth Avenue, THREE BEDROOM TWO BATHROOM APARTMENT 1168 COMMONWEALTH AVENUE ,,7/18/15 18:37,15:05.8,15:05.8,2,39,-71.1282,42.3498,3500 3 3BR 2BA Apartment   1168 Commonwealth Avenue -71.1282 42.3498,BROOKLINE,Inner Core,400300.0,25021400300.0,,,
178379,610410,2250,2, TWO BEDROOM ONE BATHROOM APARTMENT 1398 BEACON ST ,2BR/1BA Apartment - 1398 Beacon St, TWO BEDROOM ONE BATHROOM APARTMENT 1398 BEACON ST ,,11/5/15 21:27,15:05.8,15:05.8,2,39,-71.1249,42.3415,2250 2 2BR 1BA Apartment   1398 Beacon St -71.1249 42.3415,BROOKLINE,Inner Core,400400.0,25021400400.0,,,
178380,610411,3800,4, FOUR BEDROOM TWO FIVE BATHROOM CONDO 19 VINELAND ST ,4BR/2.5BA Condo - 19 Vineland St, FOUR BEDROOM TWO FIVE BATHROOM CONDO 19 VINELAND ST ,,4/22/15 16:27,15:05.8,15:05.8,2,39,-71.1494,42.3572,3800 4 4BR 2 5BA Condo   19 Vineland St -71.1494 42.3572,BOSTON,Inner Core,100.0,25025000100.0,Brighton,Brighton,ALLSTON
178381,610412,4350,5, FIVE BEDROOM THREE BATHROOM HOUSE 121 GLENVILLE AVE ,5BR/3BA House - 121 Glenville Ave, FIVE BEDROOM THREE BATHROOM HOUSE 121 GLENVILLE AVE ,,11/21/15 23:46,15:05.8,15:05.8,2,39,-71.1363,42.3491,4350 5 5BR 3BA House   121 Glenville Ave -71.1363 42.3491,BOSTON,Inner Core,701.0,25025000701.0,Brighton,Allston,BRIGHTON
178382,610413,1650,1, ONE BEDROOM ONE BATHROOM APARTMENT 14 GLENVILLE AVE ,1BR/1BA Apartment - 14 Glenville Ave, ONE BEDROOM ONE BATHROOM APARTMENT 14 GLENVILLE AVE ,,7/18/15 18:02,15:05.8,15:05.8,2,39,-71.1321,42.3507,1650 1 1BR 1BA Apartment   14 Glenville Ave -71.1321 42.3507,BOSTON,Inner Core,704.0,25025000704.0,Allston,Allston,BRIGHTON
178383,610414,2500,3, THREE BEDROOM ONE BATHROOM APARTMENT TWO WASHINGTON ST ,3BR/1BA Apartment - 2 Washington St, THREE BEDROOM ONE BATHROOM APARTMENT TWO WASHINGTON ST ,,12/1/15 14:29,15:05.8,15:05.8,2,39,-71.1617,42.349,2500 3 3BR 1BA Apartment   2 Washington St -71.1617 42.349,BOSTON,Inner Core,201.0,25025000201.0,Brighton,Brighton,BRIGHTON
178384,610415,2100,2, TWO BEDROOM ONE BATHROOM APARTMENT 59 LANARK RD ,2BR/1BA Apartment - 59 Lanark Rd, TWO BEDROOM ONE BATHROOM APARTMENT 59 LANARK RD ,,9/22/15 14:48,15:05.8,15:05.8,2,39,-71.1465,42.34,2100 2 2BR 1BA Apartment   59 Lanark Rd -71.1465 42.34,BOSTON,Inner Core,504.0,25025000504.0,Brighton,Brighton,BRIGHTON
178385,610416,3200,4, FOUR BEDROOM ONE BATHROOM APARTMENT 41 LONG AVE ,4BR/1BA Apartment - 41 Long Ave, FOUR BEDROOM ONE BATHROOM APARTMENT 41 LONG AVE ,,3/30/15 21:50,15:05.8,15:05.8,2,39,-71.1361,42.3504,3200 4 4BR 1BA Apartment   41 Long Ave -71.1361 42.3504,BOSTON,Inner Core,704.0,25025000704.0,Allston,Allston,BRIGHTON
178386,610417,2300,3, THREE BEDROOM ONE BATHROOM APARTMENT 98 BEECHCROFT ST ,3BR/1BA Apartment - 98 Beechcroft St, THREE BEDROOM ONE BATHROOM APARTMENT 98 BEECHCROFT ST ,,10/17/15 13:56,15:05.8,15:05.8,2,39,-71.1611,42.3522,2300 3 3BR 1BA Apartment   98 Beechcroft St -71.1611 42.3522,BOSTON,Inner Core,201.0,25025000201.0,Brighton,Brighton,BRIGHTON
178387,610418,4200,4, FOUR BEDROOM TWO BATHROOM APARTMENT 133 BROOK ST ,4BR/2BA Apartment - 133 Brook St, FOUR BEDROOM TWO BATHROOM APARTMENT 133 BROOK ST ,,8/7/15 17:27,15:05.8,15:05.8,2,39,-71.1184,42.3363,4200 4 4BR 2BA Apartment   133 Brook St -71.1184 42.3363,BROOKLINE,Inner Core,400900.0,25021400900.0,,,
178388,610419,2295,3, THREE BEDROOM ONE BATHROOM APARTMENT 19 LITCHFIELD ST ,3BR/1BA Apartment - 19 Litchfield St, THREE BEDROOM ONE BATHROOM APARTMENT 19 LITCHFIELD ST ,,8/8/15 17:12,15:05.8,15:05.8,2,39,-71.1413,42.3587,2295 3 3BR 1BA Apartment   19 Litchfield St -71.1413 42.3587,BOSTON,Inner Core,100.0,25025000100.0,Brighton,Brighton,ALLSTON
178389,610420,3800,4, FOUR BEDROOM TWO BATHROOM APARTMENT 1875 COMMONWEALTH AVENUE ,4BR/2BA Apartment - 1875 Commonwealth Avenue, FOUR BEDROOM TWO BATHROOM APARTMENT 1875 COMMONWEALTH AVENUE ,,4/22/15 16:27,15:05.8,15:05.8,2,39,-71.1533,42.3383,3800 4 4BR 2BA Apartment   1875 Commonwealth Avenue -71.1533 42.3383,BOSTON,Inner Core,502.0,25025000502.0,Brighton,Brighton,BRIGHTON
178390,610421,2200,2, TWO BEDROOM ONE BATHROOM APARTMENT 28 HIBBARD RD ,2BR/1BA Apartment - 28 Hibbard Rd, TWO BEDROOM ONE BATHROOM APARTMENT 28 HIBBARD RD ,,11/2/15 19:26,15:05.8,15:05.8,2,39,-71.1809,42.3551,2200 2 2BR 1BA Apartment   28 Hibbard Rd -71.1809 42.3551,NEWTON,Inner Core,373100.0,25017373100.0,,,
178391,610422,3950,4, FOUR BEDROOM ONE BATHROOM APARTMENT 58 EGMONT ST ,4BR/1BA Apartment - 58 Egmont St, FOUR BEDROOM ONE BATHROOM APARTMENT 58 EGMONT ST ,,7/22/15 18:20,15:05.8,15:05.8,2,39,-71.1169,42.3494,3950 4 4BR 1BA Apartment   58 Egmont St -71.1169 42.3494,BROOKLINE,Inner Core,400200.0,25021400200.0,,,
178392,610423,3100,4, FOUR BEDROOM TWO BATHROOM APARTMENT 74 SURREY ST ,4BR/2BA Apartment - 74 Surrey St, FOUR BEDROOM TWO BATHROOM APARTMENT 74 SURREY ST ,,8/17/15 17:15,15:05.8,15:05.8,2,39,-71.1564,42.3507,3100 4 4BR 2BA Apartment   74 Surrey St -71.1564 42.3507,BOSTON,Inner Core,202.0,25025000202.0,Brighton,Brighton,BRIGHTON
178393,610424,1600,1, ONE BEDROOM ONE BATHROOM APARTMENT 14 RENA ST ,1BR/1BA Apartment - 14 Rena St, ONE BEDROOM ONE BATHROOM APARTMENT 14 RENA ST ,,12/4/15 4:33,15:05.8,15:05.8,2,39,-71.1281,42.3613,1600 1 1BR 1BA Apartment   14 Rena St -71.1281 42.3613,BOSTON,Inner Core,802.0,25025000802.0,Allston,Allston,ALLSTON
178394,610425,2500,2, TWO BEDROOM ONE BATHROOM APARTMENT THREE FOSTER ST ,2BR/1BA Apartment - 3 Foster St, TWO BEDROOM ONE BATHROOM APARTMENT THREE FOSTER ST ,,9/24/15 17:48,15:05.8,15:05.8,2,39,-71.157,42.3507,2500 2 2BR 1BA Apartment   3 Foster St -71.157 42.3507,BOSTON,Inner Core,202.0,25025000202.0,Brighton,Brighton,BRIGHTON
178395,610426,2450,3, THREE BEDROOM ONE BATHROOM APARTMENT 18 RAYMOND ST ,3BR/1BA Apartment - 18 Raymond St, THREE BEDROOM ONE BATHROOM APARTMENT 18 RAYMOND ST ,,7/24/15 17:32,15:05.8,15:05.8,2,39,-71.1344,42.3619,2450 3 3BR 1BA Apartment   18 Raymond St -71.1344 42.3619,BOSTON,Inner Core,100.0,25025000100.0,Brighton,Allston,ALLSTON
178396,610427,2000,1, ONE BEDROOM ONE BATHROOM APARTMENT 60 GLEN RD ,1BR/1BA Apartment - 60 Glen Rd, ONE BEDROOM ONE BATHROOM APARTMENT 60 GLEN RD ,,3/26/15 20:24,15:05.8,15:05.8,2,39,-71.1171,42.3261,2000 1 1BR 1BA Apartment   60 Glen Rd -71.1171 42.3261,BROOKLINE,Inner Core,401000.0,25021401000.0,,,
178397,610428,4000,4, FOUR BEDROOM FIVE 0 BATHROOM APARTMENT SUTHERLAND RD ,4BR/5.0BA Apartment - Sutherland Rd, FOUR BEDROOM FIVE 0 BATHROOM APARTMENT SUTHERLAND RD ,,11/13/15 21:11,15:05.8,15:05.8,2,39,-71.1505,42.3368,4000 4 4BR 5 0BA Apartment   Sutherland Rd -71.1505 42.3368,BOSTON,Inner Core,502.0,25025000502.0,Brighton,Brighton,BRIGHTON
178398,610429,1450,1, ONE BEDROOM ONE BATHROOM APARTMENT 36 COOLIDGE HILL RD ,1BR/1BA Apartment - 36 Coolidge Hill Rd, ONE BEDROOM ONE BATHROOM APARTMENT 36 COOLIDGE HILL RD ,,11/3/15 20:37,15:05.8,15:05.8,2,39,-71.1537,42.3679,1450 1 1BR 1BA Apartment   36 Coolidge Hill Rd -71.1537 42.3679,WATERTOWN,Inner Core,370300.0,25017370300.0,,,
178399,610430,3800,6, SIX BEDROOM TWO BATHROOM APARTMENT SEVEN TIMON AVE ,6BR/2BA Apartment - 7 Timon Ave, SIX BEDROOM TWO BATHROOM APARTMENT SEVEN TIMON AVE ,,6/26/15 21:50,15:05.8,15:05.8,2,39,-71.1454,42.3265,3800 6 6BR 2BA Apartment   7 Timon Ave -71.1454 42.3265,BROOKLINE,Inner Core,401100.0,25021401100.0,,,
178400,610431,3600,3, THREE BEDROOM TWO BATHROOM APARTMENT 1901 BEACON ST ,3BR/2BA Apartment - 1901 Beacon St, THREE BEDROOM TWO BATHROOM APARTMENT 1901 BEACON ST ,,8/8/15 5:09,15:05.8,15:05.8,2,39,-71.1478,42.3364,3600 3 3BR 2BA Apartment   1901 Beacon St -71.1478 42.3364,BROOKLINE,Inner Core,400600.0,25021400600.0,,,
178401,610432,2000,2, TWO BEDROOM ONE BATHROOM APARTMENT 1576 COMMONWEALTH AVENUE ,2BR/1BA Apartment - 1576 Commonwealth Avenue, TWO BEDROOM ONE BATHROOM APARTMENT 1576 COMMONWEALTH AVENUE ,,7/18/15 18:32,15:05.8,15:05.8,2,39,-71.1423,42.3438,2000 2 2BR 1BA Apartment   1576 Commonwealth Avenue -71.1423 42.3438,BOSTON,Inner Core,504.0,25025000504.0,Brighton,Brighton,BRIGHTON
178402,610433,1500,1, ONE BEDROOM ONE BATHROOM APARTMENT 56 PARK VALE AVE ,1BR/1BA Apartment - 56 Park Vale Ave, ONE BEDROOM ONE BATHROOM APARTMENT 56 PARK VALE AVE ,,8/25/15 21:43,15:05.8,15:05.8,2,39,-71.1332,42.3527,1500 1 1BR 1BA Apartment   56 Park Vale Ave -71.1332 42.3527,BOSTON,Inner Core,704.0,25025000704.0,Allston,Allston,BRIGHTON
178403,610434,6600,6, SIX BEDROOM TWO BATHROOM APARTMENT 51 ASHFORD ST ,6BR/2BA Apartment - 51 Ashford St, SIX BEDROOM TWO BATHROOM APARTMENT 51 ASHFORD ST ,,12/5/15 4:46,15:05.9,15:05.9,2,39,-71.1265,42.3545,6600 6 6BR 2BA Apartment   51 Ashford St -71.1265 42.3545,BOSTON,Inner Core,802.0,25025000802.0,Allston,Allston,ALLSTON
178404,610435,2070,2, TWO BEDROOM ONE BATHROOM APARTMENT 1870 BEACON ST ,2BR/1BA Apartment - 1870 Beacon St, TWO BEDROOM ONE BATHROOM APARTMENT 1870 BEACON ST ,,6/10/15 14:07,15:05.9,15:05.9,2,39,-71.1462,42.3372,2070 2 2BR 1BA Apartment   1870 Beacon St -71.1462 42.3372,BROOKLINE,Inner Core,400600.0,25021400600.0,,,
178405,610436,3300,4, FOUR BEDROOM TWO BATHROOM APARTMENT 111 111A KENRICK ST ,4BR/2BA Apartment - 111-111A Kenrick St, FOUR BEDROOM TWO BATHROOM APARTMENT 111 111A KENRICK ST ,,8/8/15 21:48,15:09.4,15:09.4,2,39,-71.1672,42.3468,3300 4 4BR 2BA Apartment   111 111A Kenrick St -71.1672 42.3468,BOSTON,Inner Core,302.0,25025000302.0,Brighton,Brighton,BRIGHTON
178406,610437,895,0, 0 BEDROOM ONE BATHROOM APARTMENT 20 ROYCE RD ,0BR/1BA Apartment - 20 Royce Rd, 0 BEDROOM ONE BATHROOM APARTMENT 20 ROYCE RD ,,12/2/15 0:36,15:09.4,15:09.4,2,39,-71.1313,42.3489,895 0 0BR 1BA Apartment   20 Royce Rd -71.1313 42.3489,BOSTON,Inner Core,704.0,25025000704.0,Allston,Allston,BRIGHTON
178407,610438,1800,1, ONE BEDROOM ONE BATHROOM APARTMENT NINE ATHOL ST ,1BR/1BA Apartment - 9 Athol St, ONE BEDROOM ONE BATHROOM APARTMENT NINE ATHOL ST ,,8/22/15 17:22,15:09.4,15:09.4,2,39,-71.1345,42.3613,1800 1 1BR 1BA Apartment   9 Athol St -71.1345 42.3613,BOSTON,Inner Core,100.0,25025000100.0,Brighton,Allston,ALLSTON
178408,610439,2400,2, TWO BEDROOM ONE BATHROOM APARTMENT 24 FAIRBANKS ST ,2BR/1BA Apartment - 24 Fairbanks St, TWO BEDROOM ONE BATHROOM APARTMENT 24 FAIRBANKS ST ,,8/8/15 5:12,15:09.4,15:09.4,2,39,-71.1314,42.339,2400 2 2BR 1BA Apartment   24 Fairbanks St -71.1314 42.339,BROOKLINE,Inner Core,400500.0,25021400500.0,,,
178409,610440,2300,3, THREE BEDROOM ONE BATHROOM APARTMENT 54 BROCK ST ,3BR/1BA Apartment - 54 Brock St, THREE BEDROOM ONE BATHROOM APARTMENT 54 BROCK ST ,,5/9/15 15:49,15:09.5,15:09.5,2,39,-71.1606,42.3509,2300 3 3BR 1BA Apartment   54 Brock St -71.1606 42.3509,BOSTON,Inner Core,201.0,25025000201.0,Brighton,Brighton,BRIGHTON
178410,610441,2000,3, THREE BEDROOM ONE BATHROOM APARTMENT 46 BRACKETT ST ,3BR/1BA Apartment - 46 Brackett St, THREE BEDROOM ONE BATHROOM APARTMENT 46 BRACKETT ST ,,11/26/15 1:03,15:09.5,15:09.5,2,39,-71.1652,42.3517,2000 3 3BR 1BA Apartment   46 Brackett St -71.1652 42.3517,BOSTON,Inner Core,201.0,25025000201.0,Brighton,Brighton,BRIGHTON
178411,610442,1800,2, TWO BEDROOM ONE BATHROOM APARTMENT 80 GORDON ST ,2BR/1BA Apartment - 80 Gordon St, TWO BEDROOM ONE BATHROOM APARTMENT 80 GORDON ST ,,9/19/15 17:28,15:09.5,15:09.5,2,39,-71.1397,42.35,1800 2 2BR 1BA Apartment   80 Gordon St -71.1397 42.35,BOSTON,Inner Core,602.0,25025000602.0,Brighton,Allston,BRIGHTON
178412,610443,1375,0, 0 BEDROOM ONE BATHROOM APARTMENT 123 CHISWICK RD ,0BR/1BA Apartment - 123 Chiswick Rd, 0 BEDROOM ONE BATHROOM APARTMENT 123 CHISWICK RD ,,11/15/15 0:53,15:09.5,15:09.5,2,39,-71.1522,42.3406,1375 0 0BR 1BA Apartment   123 Chiswick Rd -71.1522 42.3406,BOSTON,Inner Core,502.0,25025000502.0,Brighton,Brighton,BRIGHTON
178413,610444,2185,2, TWO BEDROOM ONE BATHROOM APARTMENT 23 JAMES ST ,2BR/1BA Apartment - 23 James St, TWO BEDROOM ONE BATHROOM APARTMENT 23 JAMES ST ,,8/8/15 3:23,15:09.5,15:09.5,2,39,-71.1188,42.3439,2185 2 2BR 1BA Apartment   23 James St -71.1188 42.3439,BROOKLINE,Inner Core,400200.0,25021400200.0,,,
178414,610445,2400,3, THREE BEDROOM ONE BATHROOM APARTMENT 15 HIGGINS ST ,3BR/1BA Apartment - 15 Higgins St, THREE BEDROOM ONE BATHROOM APARTMENT 15 HIGGINS ST ,,3/26/15 20:19,15:09.5,15:09.5,2,39,-71.1358,42.3527,2400 3 3BR 1BA Apartment   15 Higgins St -71.1358 42.3527,BOSTON,Inner Core,602.0,25025000602.0,Brighton,Allston,BRIGHTON
178415,610446,2350,3, THREE BEDROOM ONE BATHROOM APARTMENT 76 HARVARD AVE ,3BR/1BA Apartment - 76 Harvard Ave, THREE BEDROOM ONE BATHROOM APARTMENT 76 HARVARD AVE ,,9/18/15 3:46,15:09.5,15:09.5,2,39,-71.1322,42.3536,2350 3 3BR 1BA Apartment   76 Harvard Ave -71.1322 42.3536,BOSTON,Inner Core,802.0,25025000802.0,Allston,Allston,ALLSTON
178416,610447,1750,2, TWO BEDROOM ONE BATHROOM APARTMENT 220 N BEACON ST ,2BR/1BA Apartment - 220 N Beacon St, TWO BEDROOM ONE BATHROOM APARTMENT 220 N BEACON ST ,,9/1/15 17:17,15:09.5,15:09.5,2,39,-71.1725,42.3633,1750 2 2BR 1BA Apartment   220 N Beacon St -71.1725 42.3633,WATERTOWN,Inner Core,370400.0,25017370400.0,,,
178417,610448,1700,1, ONE BEDROOM ONE BATHROOM APARTMENT 1383 BEACON ST ,1BR/1BA Apartment - 1383 Beacon St, ONE BEDROOM ONE BATHROOM APARTMENT 1383 BEACON ST ,,12/4/15 4:32,15:09.5,15:09.5,2,39,-71.1241,42.3411,1700 1 1BR 1BA Apartment   1383 Beacon St -71.1241 42.3411,BROOKLINE,Inner Core,400500.0,25021400500.0,,,
178418,610449,2400,3, THREE BEDROOM ONE BATHROOM APARTMENT 21 BOTHWELL RD ,3BR/1BA Apartment - 21 Bothwell Rd, THREE BEDROOM ONE BATHROOM APARTMENT 21 BOTHWELL RD ,,10/17/15 13:56,15:09.5,15:09.5,2,39,-71.1609,42.3532,2400 3 3BR 1BA Apartment   21 Bothwell Rd -71.1609 42.3532,BOSTON,Inner Core,201.0,25025000201.0,Brighton,Brighton,BRIGHTON
178419,610450,2750,3, THREE BEDROOM TWO BATHROOM APARTMENT 207 LAKE SHORE RD ,3BR/2BA Apartment - 207 Lake Shore Rd, THREE BEDROOM TWO BATHROOM APARTMENT 207 LAKE SHORE RD ,,4/10/15 16:28,15:09.5,15:09.5,2,39,-71.1694,42.3459,2750 3 3BR 2BA Apartment   207 Lake Shore Rd -71.1694 42.3459,BOSTON,Inner Core,302.0,25025000302.0,Brighton,Brighton,BRIGHTON
178420,610451,2400,1, ONE BEDROOM ONE BATHROOM APARTMENT 1533 BEACON ST ,1BR/1BA Apartment - 1533 Beacon St, ONE BEDROOM ONE BATHROOM APARTMENT 1533 BEACON ST ,,11/26/15 4:45,15:09.5,15:09.5,2,39,-71.1312,42.3395,2400 1 1BR 1BA Apartment   1533 Beacon St -71.1312 42.3395,BROOKLINE,Inner Core,400400.0,25021400400.0,,,
178421,610452,2100,2, TWO BEDROOM ONE BATHROOM APARTMENT THREE LAROSE PL ,2BR/1BA Apartment - 3 Larose Pl, TWO BEDROOM ONE BATHROOM APARTMENT THREE LAROSE PL ,,11/27/15 23:56,15:09.5,15:09.5,2,39,-71.1472,42.3454,2100 2 2BR 1BA Apartment   3 Larose Pl -71.1472 42.3454,BOSTON,Inner Core,401.0,25025000401.0,Brighton,Brighton,BRIGHTON
178422,610453,3500,4, FOUR BEDROOM ONE FIVE BATHROOM APARTMENT SEVEN DEVOTION ST ,4BR/1.5BA Apartment - 7 Devotion St, FOUR BEDROOM ONE FIVE BATHROOM APARTMENT SEVEN DEVOTION ST ,,8/23/15 8:32,15:09.5,15:09.5,2,39,-71.1219,42.3456,3500 4 4BR 1 5BA Apartment   7 Devotion St -71.1219 42.3456,BROOKLINE,Inner Core,400300.0,25021400300.0,,,
178423,610454,1875,2, TWO BEDROOM ONE BATHROOM APARTMENT 77 BRIGHTON AVE ,2BR/1BA Apartment - 77 Brighton Ave, TWO BEDROOM ONE BATHROOM APARTMENT 77 BRIGHTON AVE ,,10/4/15 1:22,15:09.5,15:09.5,2,39,-71.129,42.3529,1875 2 2BR 1BA Apartment   77 Brighton Ave -71.129 42.3529,BOSTON,Inner Core,802.0,25025000802.0,Allston,Allston,ALLSTON
178424,610455,2400,2, TWO BEDROOM ONE BATHROOM APARTMENT 177 CYPRESS ST ,2BR/1BA Apartment - 177 Cypress St, TWO BEDROOM ONE BATHROOM APARTMENT 177 CYPRESS ST ,,8/8/15 3:33,15:09.5,15:09.5,2,39,-71.126,42.3285,2400 2 2BR 1BA Apartment   177 Cypress St -71.126 42.3285,BROOKLINE,Inner Core,401000.0,25021401000.0,,,
178425,610456,1800,1, ONE BEDROOM ONE BATHROOM APARTMENT 1253 BEACON ST ,1BR/1BA Apartment - 1253 Beacon St, ONE BEDROOM ONE BATHROOM APARTMENT 1253 BEACON ST ,,10/29/15 18:34,15:09.5,15:09.5,2,39,-71.118,42.3429,1800 1 1BR 1BA Apartment   1253 Beacon St -71.118 42.3429,BROOKLINE,Inner Core,400200.0,25021400200.0,,,
178426,610457,2500,2, TWO BEDROOM ONE BATHROOM APARTMENT 129 CHISWICK RD ,2BR/1BA Apartment - 129 Chiswick Rd, TWO BEDROOM ONE BATHROOM APARTMENT 129 CHISWICK RD ,,3/26/15 20:17,15:09.5,15:09.5,2,39,-71.1532,42.3408,2500 2 2BR 1BA Apartment   129 Chiswick Rd -71.1532 42.3408,BOSTON,Inner Core,401.0,25025000401.0,Brighton,Brighton,BRIGHTON
178427,610458,2900,3, THREE BEDROOM TWO BATHROOM APARTMENT 233 BOYLSTON ST ,3BR/2BA Apartment - 233 Boylston St, THREE BEDROOM TWO BATHROOM APARTMENT 233 BOYLSTON ST ,,11/20/15 2:32,15:09.5,15:09.5,2,39,-71.1231,42.3306,2900 3 3BR 2BA Apartment   233 Boylston St -71.1231 42.3306,BROOKLINE,Inner Core,401000.0,25021401000.0,,,
178428,610459,2400,3, THREE BEDROOM ONE BATHROOM APARTMENT 14 GREYMERE RD ,3BR/1BA Apartment - 14 Greymere Rd, THREE BEDROOM ONE BATHROOM APARTMENT 14 GREYMERE RD ,,8/11/15 22:42,15:09.5,15:09.5,2,39,-71.1627,42.3484,2400 3 3BR 1BA Apartment   14 Greymere Rd -71.1627 42.3484,BOSTON,Inner Core,302.0,25025000302.0,Brighton,Brighton,BRIGHTON
178429,610460,1750,1, ONE BEDROOM ONE BATHROOM APARTMENT 57 LONGWOOD AVE ,1BR/1BA Apartment - 57 Longwood Ave, ONE BEDROOM ONE BATHROOM APARTMENT 57 LONGWOOD AVE ,,12/4/15 1:36,15:09.5,15:09.5,2,39,-71.1183,42.341,1750 1 1BR 1BA Apartment   57 Longwood Ave -71.1183 42.341,BROOKLINE,Inner Core,400800.0,25021400800.0,,,
178430,610461,2200,2, TWO BEDROOM ONE BATHROOM APARTMENT 18 COLLISTON RD ,2BR/1BA Apartment - 18 Colliston Rd, TWO BEDROOM ONE BATHROOM APARTMENT 18 COLLISTON RD ,,11/19/15 4:50,15:09.5,15:09.5,2,39,-71.1459,42.3394,2200 2 2BR 1BA Apartment   18 Colliston Rd -71.1459 42.3394,BOSTON,Inner Core,504.0,25025000504.0,Brighton,Brighton,BRIGHTON
178431,610462,1875,2, TWO BEDROOM ONE BATHROOM APARTMENT 25 EVERETT ST ,2BR/1BA Apartment - 25 Everett St, TWO BEDROOM ONE BATHROOM APARTMENT 25 EVERETT ST ,,3/26/15 20:10,15:09.5,15:09.5,2,39,-71.1386,42.3547,1875 2 2BR 1BA Apartment   25 Everett St -71.1386 42.3547,BOSTON,Inner Core,802.0,25025000802.0,Allston,Allston,ALLSTON
178432,610463,2085,3, THREE BEDROOM ONE BATHROOM APARTMENT 1848 COMMONWEALTH AVENUE ,3BR/1BA Apartment - 1848 Commonwealth Avenue, THREE BEDROOM ONE BATHROOM APARTMENT 1848 COMMONWEALTH AVENUE ,,9/10/15 17:44,15:09.6,15:09.6,2,39,-71.1522,42.3389,2085 3 3BR 1BA Apartment   1848 Commonwealth Avenue -71.1522 42.3389,BOSTON,Inner Core,503.0,25025000503.0,Brighton,Brighton,BRIGHTON
178433,610464,2400,2, TWO BEDROOM ONE BATHROOM APARTMENT 21 HANO ST ,2BR/1BA Apartment - 21 Hano St, TWO BEDROOM ONE BATHROOM APARTMENT 21 HANO ST ,,7/1/15 3:45,15:09.6,15:09.6,2,39,-71.1371,42.356,2400 2 2BR 1BA Apartment   21 Hano St -71.1371 42.356,BOSTON,Inner Core,802.0,25025000802.0,Allston,Allston,ALLSTON
178434,610465,1830,1, ONE BEDROOM ONE BATHROOM APARTMENT 34 GARDNER RD ,1BR/1BA Apartment - 34 Gardner Rd, ONE BEDROOM ONE BATHROOM APARTMENT 34 GARDNER RD ,,8/8/15 5:24,15:09.6,15:09.6,2,39,-71.1281,42.3377,1830 1 1BR 1BA Apartment   34 Gardner Rd -71.1281 42.3377,BROOKLINE,Inner Core,400500.0,25021400500.0,,,
178435,610466,3500,4, FOUR BEDROOM TWO BATHROOM APARTMENT SIX SUTHERLAND RD ,4BR/2BA Apartment - 6 Sutherland Rd, FOUR BEDROOM TWO BATHROOM APARTMENT SIX SUTHERLAND RD ,,6/4/15 16:56,15:09.6,15:09.6,2,39,-71.1506,42.3366,3500 4 4BR 2BA Apartment   6 Sutherland Rd -71.1506 42.3366,BOSTON,Inner Core,502.0,25025000502.0,Brighton,Brighton,BRIGHTON
178436,610467,1700,1, ONE BEDROOM ONE BATHROOM APARTMENT SIX ATHOL ST ,1BR/1BA Apartment - 6 Athol St, ONE BEDROOM ONE BATHROOM APARTMENT SIX ATHOL ST ,,8/23/15 16:53,15:09.6,15:09.6,2,39,-71.134,42.3613,1700 1 1BR 1BA Apartment   6 Athol St -71.134 42.3613,BOSTON,Inner Core,100.0,25025000100.0,Brighton,Allston,ALLSTON
