,id,ask,bedrooms,title,original_title,cl_title,address,post_at,created_at,updated_at,source_id,survey_id,latitude,longitude,uniqueid,town,comm_type,tract10,ct10_id,neighborhood_01,neighborhood_02,neighborhood_03
178941,610971,1795,2, TWO BEDROOM 73 CHISWICK RD TWO BR ,Two BR 73 Chiswick Rd. - Two BR, TWO BEDROOM 73 CHISWICK RD TWO BR ,,12/4/15 11:51,15:47.7,15:47.7,2,39,-71.1500579,42.3398042,1795 2 Two BR 73 Chiswick Rd    Two BR -71.1500579 42.3398042,BOSTON,Inner Core,503.0,25025000503.0,Brighton,Brighton,BRIGHTON
178942,610972,1200,0, 0 BEDROOM ONE BATHROOM APARTMENT 14 VINAL ST ,0BR/1BA Apartment - 14 Vinal St, 0 BEDROOM ONE BATHROOM APARTMENT 14 VINAL ST ,,8/8/15 2:50,15:47.8,15:47.8,2,39,-71.1382,42.3459,1200 0 0BR 1BA Apartment   14 Vinal St -71.1382 42.3459,BOSTON,Inner Core,701.0,25025000701.0,Brighton,Brighton,BRIGHTON
178943,610973,2800,4, FOUR BEDROOM ONE FIVE BATHROOM APARTMENT 1719 COMMONWEALTH AVENUE ,4BR/1.5BA Apartment - 1719 Commonwealth Avenue, FOUR BEDROOM ONE FIVE BATHROOM APARTMENT 1719 COMMONWEALTH AVENUE ,,8/8/15 2:50,15:47.8,15:47.8,2,39,-71.1483,42.3421,2800 4 4BR 1 5BA Apartment   1719 Commonwealth Avenue -71.1483 42.3421,BOSTON,Inner Core,401.0,25025000401.0,Brighton,Brighton,BRIGHTON
178944,610974,3200,3, THREE BEDROOM TWO BATHROOM APARTMENT 84 BROWNE ST ,3BR/2BA Apartment - 84 Browne St, THREE BEDROOM TWO BATHROOM APARTMENT 84 BROWNE ST ,,9/29/15 17:50,15:47.8,15:47.8,2,39,-71.1195,42.3457,3200 3 3BR 2BA Apartment   84 Browne St -71.1195 42.3457,BROOKLINE,Inner Core,400200.0,25021400200.0,,,
178945,610975,2500,2, TWO BEDROOM ONE FIVE BATHROOM APARTMENT 13 FULLER ST ,2BR/1.5BA Apartment - 13 Fuller St, TWO BEDROOM ONE FIVE BATHROOM APARTMENT 13 FULLER ST ,,9/23/15 23:55,15:47.8,15:47.8,2,39,-71.1283,42.3443,2500 2 2BR 1 5BA Apartment   13 Fuller St -71.1283 42.3443,BROOKLINE,Inner Core,400300.0,25021400300.0,,,
178946,610976,3100,4, FOUR BEDROOM ONE BATHROOM APARTMENT 58 ATHERTON RD ,4BR/1BA Apartment - 58 Atherton Rd, FOUR BEDROOM ONE BATHROOM APARTMENT 58 ATHERTON RD ,,11/15/15 1:01,15:47.8,15:47.8,2,39,-71.1281,42.3427,3100 4 4BR 1BA Apartment   58 Atherton Rd -71.1281 42.3427,BROOKLINE,Inner Core,400400.0,25021400400.0,,,
178947,610977,2400,3, THREE BEDROOM ONE BATHROOM APARTMENT FOUR HARVARD PL ,3BR/1BA Apartment - 4 Harvard Pl, THREE BEDROOM ONE BATHROOM APARTMENT FOUR HARVARD PL ,,8/20/15 17:16,15:47.8,15:47.8,2,39,-71.1209,42.3362,2400 3 3BR 1BA Apartment   4 Harvard Pl -71.1209 42.3362,BROOKLINE,Inner Core,400700.0,25021400700.0,,,
178948,610978,2270,1, ONE BEDROOM ONE BATHROOM APARTMENT 70 STREET PAUL ST ,1BR/1BA Apartment - 70 St Paul St, ONE BEDROOM ONE BATHROOM APARTMENT 70 STREET PAUL ST ,,8/8/15 3:06,15:47.8,15:47.8,2,39,-71.1181,42.3387,2270 1 1BR 1BA Apartment   70 St Paul St -71.1181 42.3387,BROOKLINE,Inner Core,400800.0,25021400800.0,,,
178949,610979,1950,1, ONE BEDROOM ONE BATHROOM APARTMENT 15 COMMONWEALTH CT ,1BR/1BA Apartment - 15 Commonwealth Ct, ONE BEDROOM ONE BATHROOM APARTMENT 15 COMMONWEALTH CT ,,8/7/15 19:01,15:47.8,15:47.8,2,39,-71.1396,42.346,1950 1 1BR 1BA Apartment   15 Commonwealth Ct -71.1396 42.346,BOSTON,Inner Core,701.0,25025000701.0,Brighton,Brighton,BRIGHTON
178950,610980,4500,4, FOUR BEDROOM TWO BATHROOM APARTMENT 277 MASON TERRACE ,4BR/2BA Apartment - 277 Mason Terrace, FOUR BEDROOM TWO BATHROOM APARTMENT 277 MASON TERRACE ,,8/8/15 3:44,15:47.8,15:47.8,2,39,-71.1337,42.3447,4500 4 4BR 2BA Apartment   277 Mason Terrace -71.1337 42.3447,BROOKLINE,Inner Core,400400.0,25021400400.0,,,
178951,610981,5000,2, TWO BEDROOM TWO BATHROOM APARTMENT 29 SUTHERLAND RD ,2BR/2BA Apartment - 29 Sutherland Rd, TWO BEDROOM TWO BATHROOM APARTMENT 29 SUTHERLAND RD ,,9/27/15 22:05,15:47.8,15:47.8,2,39,-71.1497,42.3374,5000 2 2BR 2BA Apartment   29 Sutherland Rd -71.1497 42.3374,BOSTON,Inner Core,504.0,25025000504.0,Brighton,Brighton,BRIGHTON
178952,610982,3600,4, FOUR BEDROOM ONE BATHROOM APARTMENT 127 LANARK RD ,4BR/1BA Apartment - 127 Lanark Rd, FOUR BEDROOM ONE BATHROOM APARTMENT 127 LANARK RD ,,8/7/15 19:01,15:47.8,15:47.8,2,39,-71.1493,42.3405,3600 4 4BR 1BA Apartment   127 Lanark Rd -71.1493 42.3405,BOSTON,Inner Core,503.0,25025000503.0,Brighton,Brighton,BRIGHTON
178953,610983,1650,1, ONE BEDROOM ONE BATHROOM APARTMENT 89 ENGLEWOOD AVE ,1BR/1BA Apartment - 89 Englewood Ave, ONE BEDROOM ONE BATHROOM APARTMENT 89 ENGLEWOOD AVE ,,8/20/15 22:37,15:47.8,15:47.8,2,39,-71.1494,42.338,1650 1 1BR 1BA Apartment   89 Englewood Ave -71.1494 42.338,BOSTON,Inner Core,504.0,25025000504.0,Brighton,Brighton,BRIGHTON
178954,610984,2250,2, TWO BEDROOM ONE BATHROOM APARTMENT 25 WESTBOURNE TERRACE ,2BR/1BA Apartment - 25 Westbourne Terrace, TWO BEDROOM ONE BATHROOM APARTMENT 25 WESTBOURNE TERRACE ,,3/26/15 20:17,15:47.8,15:47.8,2,39,-71.1354,42.3405,2250 2 2BR 1BA Apartment   25 Westbourne Terrace -71.1354 42.3405,BROOKLINE,Inner Core,400400.0,25021400400.0,,,
178955,610985,4500,3, THREE BEDROOM TWO FIVE BATHROOM APARTMENT 89 CENTRE ST ,3BR/2.5BA Apartment - 89 Centre St, THREE BEDROOM TWO FIVE BATHROOM APARTMENT 89 CENTRE ST ,,8/8/15 5:32,15:47.8,15:47.8,2,39,-71.1263,42.3437,4500 3 3BR 2 5BA Apartment   89 Centre St -71.1263 42.3437,BROOKLINE,Inner Core,400400.0,25021400400.0,,,
178956,610986,1690,1, ONE BEDROOM ONE BATHROOM APARTMENT 1765 COMMONWEALTH AVENUE ,1BR/1BA Apartment - 1765 Commonwealth Avenue, ONE BEDROOM ONE BATHROOM APARTMENT 1765 COMMONWEALTH AVENUE ,,9/19/15 17:41,15:51.3,15:51.3,2,39,-71.1505,42.3415,1690 1 1BR 1BA Apartment   1765 Commonwealth Avenue -71.1505 42.3415,BOSTON,Inner Core,401.0,25025000401.0,Brighton,Brighton,BRIGHTON
178957,610987,2400,3, THREE BEDROOM ONE BATHROOM APARTMENT 256 COREY RD ,3BR/1BA Apartment - 256 Corey Rd, THREE BEDROOM ONE BATHROOM APARTMENT 256 COREY RD ,,8/8/15 4:13,15:51.3,15:51.3,2,39,-71.1371,42.3452,2400 3 3BR 1BA Apartment   256 Corey Rd -71.1371 42.3452,BOSTON,Inner Core,701.0,25025000701.0,Brighton,Brighton,BRIGHTON
178958,610988,1595,1, ONE BEDROOM ONE BATHROOM APARTMENT 91 WASHINGTON ST ,1BR/1BA Apartment - 91 Washington St, ONE BEDROOM ONE BATHROOM APARTMENT 91 WASHINGTON ST ,,3/20/15 3:54,15:51.3,15:51.3,2,39,-71.1437,42.3444,1595 1 1BR 1BA Apartment   91 Washington St -71.1437 42.3444,BOSTON,Inner Core,602.0,25025000602.0,Brighton,Brighton,BRIGHTON
178959,610989,1685,0, 0 BEDROOM ONE BATHROOM APARTMENT 19 FAIRBANKS ST ,0BR/1BA Apartment - 19 Fairbanks St, 0 BEDROOM ONE BATHROOM APARTMENT 19 FAIRBANKS ST ,,8/8/15 3:06,15:51.3,15:51.3,2,39,-71.1315,42.3386,1685 0 0BR 1BA Apartment   19 Fairbanks St -71.1315 42.3386,BROOKLINE,Inner Core,400500.0,25021400500.0,,,
178960,610990,5000,3, THREE BEDROOM TWO BATHROOM APARTMENT 1471 BEACON ST ,3BR/2BA Apartment - 1471 Beacon St, THREE BEDROOM TWO BATHROOM APARTMENT 1471 BEACON ST ,,11/15/15 0:56,15:51.3,15:51.3,2,39,-71.128,42.3398,5000 3 3BR 2BA Apartment   1471 Beacon St -71.128 42.3398,BROOKLINE,Inner Core,400500.0,25021400500.0,,,
178961,610991,1900,2, TWO BEDROOM ONE BATHROOM APARTMENT 280 COREY RD ,2BR/1BA Apartment - 280 Corey Rd, TWO BEDROOM ONE BATHROOM APARTMENT 280 COREY RD ,,8/8/15 2:52,15:51.3,15:51.3,2,39,-71.1362,42.3459,1900 2 2BR 1BA Apartment   280 Corey Rd -71.1362 42.3459,BOSTON,Inner Core,701.0,25025000701.0,Brighton,Brighton,BRIGHTON
178962,610992,1995,1, ONE BEDROOM ONE BATHROOM APARTMENT 77 MASON TERRACE ,1BR/1BA Apartment - 77 Mason Terrace, ONE BEDROOM ONE BATHROOM APARTMENT 77 MASON TERRACE ,,8/8/15 3:19,15:51.3,15:51.3,2,39,-71.13,42.341,1995 1 1BR 1BA Apartment   77 Mason Terrace -71.13 42.341,BROOKLINE,Inner Core,400400.0,25021400400.0,,,
178963,610993,2400,5, FIVE BEDROOM TWO BATHROOM APARTMENT 1691 COMMONWEALTH AVENUE ,5BR/2BA Apartment - 1691 Commonwealth Avenue, FIVE BEDROOM TWO BATHROOM APARTMENT 1691 COMMONWEALTH AVENUE ,,11/23/15 0:06,15:51.3,15:51.3,2,39,-71.1466,42.3419,2400 5 5BR 2BA Apartment   1691 Commonwealth Avenue -71.1466 42.3419,BOSTON,Inner Core,401.0,25025000401.0,Brighton,Brighton,BRIGHTON
178964,610994,1675,1, ONE BEDROOM ONE BATHROOM APARTMENT ONE LONGWOOD AVE ,1BR/1BA Apartment - 1 Longwood Ave, ONE BEDROOM ONE BATHROOM APARTMENT ONE LONGWOOD AVE ,,8/8/15 5:34,15:51.4,15:51.4,2,39,-71.121,42.3415,1675 1 1BR 1BA Apartment   1 Longwood Ave -71.121 42.3415,BROOKLINE,Inner Core,400200.0,25021400200.0,,,
178965,610995,3800,4, FOUR BEDROOM ONE BATHROOM APARTMENT 116 BROWNE ST ,4BR/1BA Apartment - 116 Browne St, FOUR BEDROOM ONE BATHROOM APARTMENT 116 BROWNE ST ,,8/8/15 3:07,15:51.4,15:51.4,2,39,-71.1195,42.3468,3800 4 4BR 1BA Apartment   116 Browne St -71.1195 42.3468,BROOKLINE,Inner Core,400200.0,25021400200.0,,,
178966,610996,3000,2, TWO BEDROOM TWO BATHROOM APARTMENT 91 GRIGGS RD ,2BR/2BA Apartment - 91 Griggs Rd, TWO BEDROOM TWO BATHROOM APARTMENT 91 GRIGGS RD ,,10/16/15 0:11,15:51.4,15:51.4,2,39,-71.1291,42.339,3000 2 2BR 2BA Apartment   91 Griggs Rd -71.1291 42.339,BROOKLINE,Inner Core,400500.0,25021400500.0,,,
178967,610997,2800,3, THREE BEDROOM ONE BATHROOM APARTMENT NINE BERKELEY CT ,3BR/1BA Apartment - 9 Berkeley Ct, THREE BEDROOM ONE BATHROOM APARTMENT NINE BERKELEY CT ,,5/23/15 16:20,15:51.4,15:51.4,2,39,-71.1208,42.3324,2800 3 3BR 1BA Apartment   9 Berkeley Ct -71.1208 42.3324,BROOKLINE,Inner Core,400700.0,25021400700.0,,,
178968,610998,2900,3, THREE BEDROOM TWO BATHROOM APARTMENT FIVE SMYTHE ST ,3BR/2BA Apartment - 5 Smythe St, THREE BEDROOM TWO BATHROOM APARTMENT FIVE SMYTHE ST ,,8/8/15 3:46,15:51.4,15:51.4,2,39,-71.1235,42.3307,2900 3 3BR 2BA Apartment   5 Smythe St -71.1235 42.3307,BROOKLINE,Inner Core,400700.0,25021400700.0,,,
178969,610999,4200,5, FIVE BEDROOM TWO BATHROOM APARTMENT SEVEN BOULEVARD TERRACE ,5BR/2BA Apartment - 7 Boulevard Terrace, FIVE BEDROOM TWO BATHROOM APARTMENT SEVEN BOULEVARD TERRACE ,,8/8/15 3:47,15:51.4,15:51.4,2,39,-71.139,42.347,4200 5 5BR 2BA Apartment   7 Boulevard Terrace -71.139 42.347,BOSTON,Inner Core,701.0,25025000701.0,Brighton,Allston,BRIGHTON
178970,611000,2100,1, ONE BEDROOM ONE BATHROOM APARTMENT 1498 BEACON ST ,1BR/1BA Apartment - 1498 Beacon St, ONE BEDROOM ONE BATHROOM APARTMENT 1498 BEACON ST ,,8/8/15 6:23,15:51.4,15:51.4,2,39,-71.1291,42.3401,2100 1 1BR 1BA Apartment   1498 Beacon St -71.1291 42.3401,BROOKLINE,Inner Core,400400.0,25021400400.0,,,
178971,611001,2800,2, TWO BEDROOM ONE BATHROOM APARTMENT 461 WASHINGTON ST ,2BR/1BA Apartment - 461 Washington St, TWO BEDROOM ONE BATHROOM APARTMENT 461 WASHINGTON ST ,,8/8/15 6:22,15:51.4,15:51.4,2,39,-71.1256,42.3362,2800 2 2BR 1BA Apartment   461 Washington St -71.1256 42.3362,BROOKLINE,Inner Core,400700.0,25021400700.0,,,
178972,611002,1900,1, ONE BEDROOM ONE BATHROOM APARTMENT 37 HARVARD AVE ,1BR/1BA Apartment - 37 Harvard Ave, ONE BEDROOM ONE BATHROOM APARTMENT 37 HARVARD AVE ,,8/8/15 3:17,15:51.4,15:51.4,2,39,-71.1228,42.3365,1900 1 1BR 1BA Apartment   37 Harvard Ave -71.1228 42.3365,BROOKLINE,Inner Core,400800.0,25021400800.0,,,
178973,611003,1200,0, 0 BEDROOM ONE BATHROOM APARTMENT TEN VINAL ST ,0BR/1BA Apartment - 10 Vinal St, 0 BEDROOM ONE BATHROOM APARTMENT TEN VINAL ST ,,8/8/15 2:50,15:51.4,15:51.4,2,39,-71.1384,42.346,1200 0 0BR 1BA Apartment   10 Vinal St -71.1384 42.346,BOSTON,Inner Core,701.0,25025000701.0,Brighton,Brighton,BRIGHTON
178974,611004,3600,5, FIVE BEDROOM ONE BATHROOM APARTMENT SEVEN TIMON AVE ,5BR/1BA Apartment - 7 Timon Ave, FIVE BEDROOM ONE BATHROOM APARTMENT SEVEN TIMON AVE ,,8/15/15 22:07,15:51.4,15:51.4,2,39,-71.1454,42.3265,3600 5 5BR 1BA Apartment   7 Timon Ave -71.1454 42.3265,BROOKLINE,Inner Core,401100.0,25021401100.0,,,
178975,611005,2500,2, TWO BEDROOM ONE FIVE BATHROOM APARTMENT 120 CENTRE ST ,2BR/1.5BA Apartment - 120 Centre St, TWO BEDROOM ONE FIVE BATHROOM APARTMENT 120 CENTRE ST ,,8/8/15 21:53,15:51.4,15:51.4,2,39,-71.1275,42.3443,2500 2 2BR 1 5BA Apartment   120 Centre St -71.1275 42.3443,BROOKLINE,Inner Core,400400.0,25021400400.0,,,
178976,611006,2000,2, TWO BEDROOM ONE BATHROOM APARTMENT SEVEN LEAMINGTON RD ,2BR/1BA Apartment - 7 Leamington Rd, TWO BEDROOM ONE BATHROOM APARTMENT SEVEN LEAMINGTON RD ,,8/8/15 3:06,15:51.4,15:51.4,2,39,-71.1489,42.3421,2000 2 2BR 1BA Apartment   7 Leamington Rd -71.1489 42.3421,BOSTON,Inner Core,401.0,25025000401.0,Brighton,Brighton,BRIGHTON
178977,611007,2750,3, THREE BEDROOM ONE BATHROOM APARTMENT 79 WINTHROP RD ,3BR/1BA Apartment - 79 Winthrop Rd, THREE BEDROOM ONE BATHROOM APARTMENT 79 WINTHROP RD ,,8/8/15 3:01,15:51.4,15:51.4,2,39,-71.1315,42.3372,2750 3 3BR 1BA Apartment   79 Winthrop Rd -71.1315 42.3372,BROOKLINE,Inner Core,400500.0,25021400500.0,,,
178978,611008,2975,4, FOUR BEDROOM TWO BATHROOM APARTMENT 63 MONASTERY RD ,4BR/2BA Apartment - 63 Monastery Rd, FOUR BEDROOM TWO BATHROOM APARTMENT 63 MONASTERY RD ,,8/8/15 2:50,15:51.4,15:51.4,2,39,-71.1475,42.3447,2975 4 4BR 2BA Apartment   63 Monastery Rd -71.1475 42.3447,BOSTON,Inner Core,401.0,25025000401.0,Brighton,Brighton,BRIGHTON
178979,611009,2265,1, THIS GREAT ONE BEDROOM ONE BATHROOM SUNNY APARTMENT IS LOCATED IN THE AREA ON GREEN STREET ,"This great One BR, One BA sunny apartment is located in the area on Green St.", THIS GREAT ONE BEDROOM ONE BATHROOM SUNNY APARTMENT IS LOCATED IN THE AREA ON GREEN STREET ,,12/9/15 9:46,15:51.4,15:51.4,2,39,-71.1213852,42.343519,2265 1 This great One BR  One BA sunny apartment is located in the area on Green St  -71.1213852 42.343519,BROOKLINE,Inner Core,400200.0,25021400200.0,,,
178980,611010,2400,3, THREE BEDROOM TWO BATHROOM APARTMENT 66 JAMAICA RD ,3BR/2BA Apartment - 66 Jamaica Rd, THREE BEDROOM TWO BATHROOM APARTMENT 66 JAMAICA RD ,,11/20/15 2:20,15:51.4,15:51.4,2,39,-71.1194,42.3255,2400 3 3BR 2BA Apartment   66 Jamaica Rd -71.1194 42.3255,BROOKLINE,Inner Core,401000.0,25021401000.0,,,
178981,611011,2000,2, TWO BEDROOM ONE BATHROOM APARTMENT 18 ATHERTON RD ,2BR/1BA Apartment - 18 Atherton Rd, TWO BEDROOM ONE BATHROOM APARTMENT 18 ATHERTON RD ,,8/15/15 21:45,15:51.4,15:51.4,2,39,-71.1266,42.3419,2000 2 2BR 1BA Apartment   18 Atherton Rd -71.1266 42.3419,BROOKLINE,Inner Core,400400.0,25021400400.0,,,
178982,611012,1700,2, TWO BEDROOM ONE BATHROOM APARTMENT 22 HEATH HILL ,2BR/1BA Apartment - 22 Heath Hill, TWO BEDROOM ONE BATHROOM APARTMENT 22 HEATH HILL ,,9/9/15 22:02,15:51.4,15:51.4,2,39,-71.1421,42.3258,1700 2 2BR 1BA Apartment   22 Heath Hill -71.1421 42.3258,BROOKLINE,Inner Core,401100.0,25021401100.0,,,
178983,611013,2345,1, ONE BEDROOM ONE BATHROOM APARTMENT 80 STREET PAUL ST ,1BR/1BA Apartment - 80 St Paul St, ONE BEDROOM ONE BATHROOM APARTMENT 80 STREET PAUL ST ,,3/26/15 20:17,15:51.5,15:51.5,2,39,-71.1179,42.3394,2345 1 1BR 1BA Apartment   80 St Paul St -71.1179 42.3394,BROOKLINE,Inner Core,400800.0,25021400800.0,,,
178984,611014,2650,2, TWO BEDROOM ONE BATHROOM APARTMENT 794 BOYLSTON ST ,2BR/1BA Apartment - 794 Boylston St, TWO BEDROOM ONE BATHROOM APARTMENT 794 BOYLSTON ST ,,6/26/15 21:53,15:51.5,15:51.5,2,39,-71.1458,42.3264,2650 2 2BR 1BA Apartment   794 Boylston St -71.1458 42.3264,BROOKLINE,Inner Core,401100.0,25021401100.0,,,
178985,611015,2900,4, FOUR BEDROOM ONE FIVE BATHROOM APARTMENT 222 FREEMAN ST ,4BR/1.5BA Apartment - 222 Freeman St, FOUR BEDROOM ONE FIVE BATHROOM APARTMENT 222 FREEMAN ST ,,11/18/15 2:40,15:51.5,15:51.5,2,39,-71.1201,42.3475,2900 4 4BR 1 5BA Apartment   222 Freeman St -71.1201 42.3475,BROOKLINE,Inner Core,400200.0,25021400200.0,,,
178986,611016,1995,1, ONE BEDROOM ONE BATHROOM APARTMENT 59 SELKIRK RD ,1BR/1BA Apartment - 59 Selkirk Rd, ONE BEDROOM ONE BATHROOM APARTMENT 59 SELKIRK RD ,,10/18/15 3:52,15:51.5,15:51.5,2,39,-71.1489,42.3394,1995 1 1BR 1BA Apartment   59 Selkirk Rd -71.1489 42.3394,BOSTON,Inner Core,503.0,25025000503.0,Brighton,Brighton,BRIGHTON
178987,611017,2950,2, TWO BEDROOM TWO BATHROOM APARTMENT 159 STREET PAUL ST ,2BR/2BA Apartment - 159 St Paul St, TWO BEDROOM TWO BATHROOM APARTMENT 159 STREET PAUL ST ,,8/8/15 21:49,15:51.5,15:51.5,2,39,-71.1172,42.3429,2950 2 2BR 2BA Apartment   159 St Paul St -71.1172 42.3429,BROOKLINE,Inner Core,400100.0,25021400100.0,,,
178988,611018,1750,2, TWO BEDROOM ONE BATHROOM APARTMENT SCOTTFIELD RD ,2BR/1BA Apartment - Scottfield Rd, TWO BEDROOM ONE BATHROOM APARTMENT SCOTTFIELD RD ,,9/29/15 18:01,15:51.5,15:51.5,2,39,-71.1367,42.3473,1750 2 2BR 1BA Apartment   Scottfield Rd -71.1367 42.3473,BOSTON,Inner Core,701.0,25025000701.0,Brighton,Allston,BRIGHTON
178989,611019,2500,2, TWO BEDROOM ONE BATHROOM APARTMENT 79 WINTHROP RD ,2BR/1BA Apartment - 79 Winthrop Rd, TWO BEDROOM ONE BATHROOM APARTMENT 79 WINTHROP RD ,,8/11/15 22:00,15:51.5,15:51.5,2,39,-71.1315,42.3372,2500 2 2BR 1BA Apartment   79 Winthrop Rd -71.1315 42.3372,BROOKLINE,Inner Core,400500.0,25021400500.0,,,
178990,611020,2500,2, TWO BEDROOM ONE BATHROOM APARTMENT 28 STREET PAUL ST ,2BR/1BA Apartment - 28 St Paul St, TWO BEDROOM ONE BATHROOM APARTMENT 28 STREET PAUL ST ,,10/16/15 0:03,15:51.5,15:51.5,2,39,-71.1185,42.3378,2500 2 2BR 1BA Apartment   28 St Paul St -71.1185 42.3378,BROOKLINE,Inner Core,400800.0,25021400800.0,,,
178991,611021,3500,4, FOUR BEDROOM ONE BATHROOM APARTMENT 69 BOYLSTON ST ,4BR/1BA Apartment - 69 Boylston St, FOUR BEDROOM ONE BATHROOM APARTMENT 69 BOYLSTON ST ,,8/8/15 5:37,15:51.5,15:51.5,2,39,-71.1193,42.3314,3500 4 4BR 1BA Apartment   69 Boylston St -71.1193 42.3314,BROOKLINE,Inner Core,400700.0,25021400700.0,,,
178992,611022,1700,3, THREE BEDROOM ONE BATHROOM APARTMENT 1754 COMMONWEALTH AVENUE ,3BR/1BA Apartment - 1754 Commonwealth Avenue, THREE BEDROOM ONE BATHROOM APARTMENT 1754 COMMONWEALTH AVENUE ,,8/8/15 17:14,15:51.5,15:51.5,2,39,-71.15,42.341,1700 3 3BR 1BA Apartment   1754 Commonwealth Avenue -71.15 42.341,BOSTON,Inner Core,503.0,25025000503.0,Brighton,Brighton,BRIGHTON
178993,611023,2175,1, ONE BEDROOM ONE BATHROOM BROOKLINE ONE BR ,One BR One BA Brookline - One BR, ONE BEDROOM ONE BATHROOM BROOKLINE ONE BR ,,12/7/15 6:48,15:51.5,15:51.5,2,39,-71.1176838,42.3473863,2175 1 One BR One BA Brookline   One BR -71.1176838 42.3473863,BROOKLINE,Inner Core,400200.0,25021400200.0,,,
178994,611024,2495,2, TWO BEDROOM ONE BATHROOM APARTMENT 205 WINTHROP RD ,2BR/1BA Apartment - 205 Winthrop Rd, TWO BEDROOM ONE BATHROOM APARTMENT 205 WINTHROP RD ,,8/8/15 3:09,15:51.5,15:51.5,2,39,-71.1364,42.3383,2495 2 2BR 1BA Apartment   205 Winthrop Rd -71.1364 42.3383,BROOKLINE,Inner Core,400500.0,25021400500.0,,,
178995,611025,2650,3, THREE BEDROOM ONE BATHROOM APARTMENT MT HOOD RD ,3BR/1BA Apartment - Mt Hood Rd, THREE BEDROOM ONE BATHROOM APARTMENT MT HOOD RD ,,9/29/15 17:57,15:51.5,15:51.5,2,39,-71.1421,42.3418,2650 3 3BR 1BA Apartment   Mt Hood Rd -71.1421 42.3418,BOSTON,Inner Core,504.0,25025000504.0,Brighton,Brighton,BRIGHTON
178996,611026,1450,1, ONE BEDROOM ONE BATHROOM APARTMENT 1657 COMMONWEALTH AVENUE ,1BR/1BA Apartment - 1657 Commonwealth Avenue, ONE BEDROOM ONE BATHROOM APARTMENT 1657 COMMONWEALTH AVENUE ,,6/2/15 17:02,15:51.5,15:51.5,2,39,-71.1447,42.3424,1450 1 1BR 1BA Apartment   1657 Commonwealth Avenue -71.1447 42.3424,BOSTON,Inner Core,401.0,25025000401.0,Brighton,Brighton,BRIGHTON
178997,611027,2100,3, THREE BEDROOM TWO BATHROOM APARTMENT 35 ORKNEY RD ,3BR/2BA Apartment - 35 Orkney Rd, THREE BEDROOM TWO BATHROOM APARTMENT 35 ORKNEY RD ,,8/8/15 2:51,15:51.5,15:51.5,2,39,-71.1494,42.3371,2100 3 3BR 2BA Apartment   35 Orkney Rd -71.1494 42.3371,BOSTON,Inner Core,504.0,25025000504.0,Brighton,Brighton,BRIGHTON
178998,611028,3200,4, FOUR BEDROOM TWO BATHROOM APARTMENT UNION ST ,4BR/2BA Apartment - Union St, FOUR BEDROOM TWO BATHROOM APARTMENT UNION ST ,,4/24/15 15:29,15:51.5,15:51.5,2,39,-71.1477,42.3448,3200 4 4BR 2BA Apartment   Union St -71.1477 42.3448,BOSTON,Inner Core,401.0,25025000401.0,Brighton,Brighton,BRIGHTON
178999,611029,1750,2, TWO BEDROOM ONE BATHROOM APARTMENT CHISWICK RD ,2BR/1BA Apartment - Chiswick Rd, TWO BEDROOM ONE BATHROOM APARTMENT CHISWICK RD ,,9/29/15 18:01,15:51.5,15:51.5,2,39,-71.1499,42.3397,1750 2 2BR 1BA Apartment   Chiswick Rd -71.1499 42.3397,BOSTON,Inner Core,503.0,25025000503.0,Brighton,Brighton,BRIGHTON
179000,611030,1200,0, 0 BEDROOM ONE BATHROOM APARTMENT 22 CHISWICK RD ,0BR/1BA Apartment - 22 Chiswick Rd, 0 BEDROOM ONE BATHROOM APARTMENT 22 CHISWICK RD ,,8/8/15 6:50,15:51.5,15:51.5,2,39,-71.1507,42.3383,1200 0 0BR 1BA Apartment   22 Chiswick Rd -71.1507 42.3383,BOSTON,Inner Core,503.0,25025000503.0,Brighton,Brighton,BRIGHTON
179001,611031,1200,2, TWO BEDROOM ONE 0 BATHROOM 775 SQFT ONE 200 TWO BR ,"Two BR, 1.0 BA, 775 sqft, $1,200 - Two BR", TWO BEDROOM ONE 0 BATHROOM 775 SQFT ONE 200 TWO BR ,,12/4/15 23:53,15:51.5,15:51.5,2,39,-71.1467111,42.3380903,1200 2 Two BR  1 0 BA  775 sqft   1 200   Two BR -71.1467111 42.3380903,BOSTON,Inner Core,504.0,25025000504.0,Brighton,Brighton,BRIGHTON
179002,611032,1450,1, ONE BEDROOM ONE BATHROOM APARTMENT 1709 COMMONWEALTH AVENUE ,1BR/1BA Apartment - 1709 Commonwealth Avenue, ONE BEDROOM ONE BATHROOM APARTMENT 1709 COMMONWEALTH AVENUE ,,5/17/15 16:22,15:51.5,15:51.5,2,39,-71.1485,42.3418,1450 1 1BR 1BA Apartment   1709 Commonwealth Avenue -71.1485 42.3418,BOSTON,Inner Core,503.0,25025000503.0,Brighton,Brighton,BRIGHTON
179003,611033,1375,1, ONE BEDROOM ONE BATHROOM APARTMENT 32 WINCHESTER ST ,1BR/1BA Apartment - 32 Winchester St, ONE BEDROOM ONE BATHROOM APARTMENT 32 WINCHESTER ST ,,8/8/15 5:04,15:51.5,15:51.5,2,39,-71.1258,42.3421,1375 1 1BR 1BA Apartment   32 Winchester St -71.1258 42.3421,BROOKLINE,Inner Core,400400.0,25021400400.0,,,
179004,611034,2600,4, FOUR BEDROOM TWO BATHROOM APARTMENT SIX ELM ST ,4BR/2BA Apartment - 6 Elm St, FOUR BEDROOM TWO BATHROOM APARTMENT SIX ELM ST ,,6/26/15 21:48,15:51.6,15:51.6,2,39,-71.1246,42.3317,2600 4 4BR 2BA Apartment   6 Elm St -71.1246 42.3317,BROOKLINE,Inner Core,400700.0,25021400700.0,,,
179005,611035,1975,2, TWO BEDROOM ONE FIVE BATHROOM APARTMENT 63 MONASTERY RD ,2BR/1.5BA Apartment - 63 Monastery Rd, TWO BEDROOM ONE FIVE BATHROOM APARTMENT 63 MONASTERY RD ,,4/23/15 16:28,15:51.6,15:51.6,2,39,-71.1475,42.3447,1975 2 2BR 1 5BA Apartment   63 Monastery Rd -71.1475 42.3447,BOSTON,Inner Core,401.0,25025000401.0,Brighton,Brighton,BRIGHTON
179006,611036,1760,1, ONE BEDROOM ONE BATHROOM APARTMENT 1539 BEACON ST ,1BR/1BA Apartment - 1539 Beacon St, ONE BEDROOM ONE BATHROOM APARTMENT 1539 BEACON ST ,,3/26/15 20:17,15:55.2,15:55.2,2,39,-71.1313,42.3395,1760 1 1BR 1BA Apartment   1539 Beacon St -71.1313 42.3395,BROOKLINE,Inner Core,400400.0,25021400400.0,,,
179007,611037,1100,1, ONE BEDROOM ONE BATHROOM APARTMENT 39 ENGLEWOOD AVE ,1BR/1BA Apartment - 39 Englewood Ave, ONE BEDROOM ONE BATHROOM APARTMENT 39 ENGLEWOOD AVE ,,10/20/15 13:57,15:55.2,15:55.2,2,39,-71.1467,42.3381,1100 1 1BR 1BA Apartment   39 Englewood Ave -71.1467 42.3381,BOSTON,Inner Core,504.0,25025000504.0,Brighton,Brighton,BRIGHTON
179008,611038,950,1, ONE BEDROOM ONE BATHROOM APARTMENT 68 BOYLSTON ST ,1BR/1BA Apartment - 68 Boylston St, ONE BEDROOM ONE BATHROOM APARTMENT 68 BOYLSTON ST ,,8/8/15 4:21,15:55.2,15:55.2,2,39,-71.1189,42.3312,950 1 1BR 1BA Apartment   68 Boylston St -71.1189 42.3312,BROOKLINE,Inner Core,401000.0,25021401000.0,,,
179009,611039,975,1, ONE BEDROOM TWO BATHROOM APARTMENT 29 COMMONWEALTH TERRACE ,1BR/2BA Apartment - 29 Commonwealth Terrace, ONE BEDROOM TWO BATHROOM APARTMENT 29 COMMONWEALTH TERRACE ,,9/13/15 18:06,15:55.2,15:55.2,2,39,-71.1402,42.347,975 1 1BR 2BA Apartment   29 Commonwealth Terrace -71.1402 42.347,BOSTON,Inner Core,701.0,25025000701.0,Brighton,Brighton,BRIGHTON
179010,611040,800,1, ONE BEDROOM ONE BATHROOM APARTMENT 14 MT HOOD RD ,1BR/1BA Apartment - 14 Mt Hood Rd, ONE BEDROOM ONE BATHROOM APARTMENT 14 MT HOOD RD ,,9/20/15 17:19,15:55.2,15:55.2,2,39,-71.1422,42.3416,800 1 1BR 1BA Apartment   14 Mt Hood Rd -71.1422 42.3416,BOSTON,Inner Core,504.0,25025000504.0,Brighton,Brighton,BRIGHTON
179011,611041,4500,4, FOUR BEDROOM THREE FIVE BATHROOM APARTMENT 32 SPARHAWK ST ,4BR/3.5BA Apartment - 32 Sparhawk St, FOUR BEDROOM THREE FIVE BATHROOM APARTMENT 32 SPARHAWK ST ,,11/22/15 7:00,15:55.2,15:55.2,2,39,-71.1513,42.3513,4500 4 4BR 3 5BA Apartment   32 Sparhawk St -71.1513 42.3513,BOSTON,Inner Core,601.0,25025000601.0,Brighton,Brighton,BRIGHTON
179012,611042,3250,2, TWO BEDROOM TWO BATHROOM APARTMENT 375 MARKET ST ,2BR/2BA Apartment - 375 Market St, TWO BEDROOM TWO BATHROOM APARTMENT 375 MARKET ST ,,11/27/15 13:24,15:55.2,15:55.2,2,39,-71.1526,42.3506,3250 2 2BR 2BA Apartment   375 Market St -71.1526 42.3506,BOSTON,Inner Core,202.0,25025000202.0,Brighton,Brighton,BRIGHTON
179013,611043,3500,3, THREE BEDROOM TWO FIVE BATHROOM APARTMENT 137 TREMONT ST ,3BR/2.5BA Apartment - 137 Tremont St, THREE BEDROOM TWO FIVE BATHROOM APARTMENT 137 TREMONT ST ,,11/21/15 10:43,15:55.2,15:55.2,2,39,-71.1741,42.3517,3500 3 3BR 2 5BA Apartment   137 Tremont St -71.1741 42.3517,BOSTON,Inner Core,301.0,25025000301.0,Brighton,Brighton,BRIGHTON
179014,611044,2000,2, TWO BEDROOM ONE BATHROOM APARTMENT 233 TREMONT ST ,2BR/1BA Apartment - 233 Tremont St, TWO BEDROOM ONE BATHROOM APARTMENT 233 TREMONT ST ,,11/21/15 10:54,15:55.3,15:55.3,2,39,-71.1777,42.3535,2000 2 2BR 1BA Apartment   233 Tremont St -71.1777 42.3535,NEWTON,Inner Core,373100.0,25017373100.0,,,
179015,611045,2800,4, FOUR BEDROOM ONE FIVE BATHROOM APARTMENT 11 MATCHETT ST ,4BR/1.5BA Apartment - 11 Matchett St, FOUR BEDROOM ONE FIVE BATHROOM APARTMENT 11 MATCHETT ST ,,11/14/15 21:16,15:55.3,15:55.3,2,39,-71.1711,42.3527,2800 4 4BR 1 5BA Apartment   11 Matchett St -71.1711 42.3527,BOSTON,Inner Core,301.0,25025000301.0,Brighton,Brighton,BRIGHTON
179016,611046,4800,3, THREE BEDROOM TWO BATHROOM APARTMENT 30 BENTLEY ST ,3BR/2BA Apartment - 30 Bentley St, THREE BEDROOM TWO BATHROOM APARTMENT 30 BENTLEY ST ,,11/11/15 2:27,15:55.3,15:55.3,2,39,-71.1512,42.3503,4800 3 3BR 2BA Apartment   30 Bentley St -71.1512 42.3503,BOSTON,Inner Core,601.0,25025000601.0,Brighton,Brighton,BRIGHTON
179017,611047,1895,2, TWO BEDROOM ONE BATHROOM APARTMENT 100 TREMONT ST ,2BR/1BA Apartment - 100 Tremont St, TWO BEDROOM ONE BATHROOM APARTMENT 100 TREMONT ST ,,11/15/15 7:26,15:55.3,15:55.3,2,39,-71.1727,42.3506,1895 2 2BR 1BA Apartment   100 Tremont St -71.1727 42.3506,BOSTON,Inner Core,301.0,25025000301.0,Brighton,Brighton,BRIGHTON
179018,617147,1555,1, ONE BEDROOM ONE BATHROOM APARTMENT ,1BR/1BA Apartment, ONE BEDROOM ONE BATHROOM APARTMENT ,,12/6/15 14:37,23:44.6,23:44.6,2,39,-70.882365,42.5528995,1555 1 1BR 1BA Apartment -70.882365 42.5528995,BEVERLY,Regional Urban Centers,217300.0,25009217300.0,,,
179019,611048,1900,2, TWO BEDROOM ONE BATHROOM APARTMENT 14 RIVERSIDE ST ,2BR/1BA Apartment - 14 Riverside St, TWO BEDROOM ONE BATHROOM APARTMENT 14 RIVERSIDE ST ,,11/22/15 14:51,15:55.3,15:55.3,2,39,-71.1829,42.3643,1900 2 2BR 1BA Apartment   14 Riverside St -71.1829 42.3643,WATERTOWN,Inner Core,370400.0,25017370400.0,,,
179020,611049,3300,3, THREE BEDROOM TWO BATHROOM APARTMENT 72 BENNETT ST ,3BR/2BA Apartment - 72 Bennett St, THREE BEDROOM TWO BATHROOM APARTMENT 72 BENNETT ST ,,11/18/15 11:49,15:55.3,15:55.3,2,39,-71.157,42.3519,3300 3 3BR 2BA Apartment   72 Bennett St -71.157 42.3519,BOSTON,Inner Core,202.0,25025000202.0,Brighton,Brighton,BRIGHTON
179021,611050,2400,3, THREE BEDROOM TWO BATHROOM APARTMENT 80 CRESTHILL RD ,3BR/2BA Apartment - 80 Cresthill Rd, THREE BEDROOM TWO BATHROOM APARTMENT 80 CRESTHILL RD ,,12/6/15 4:14,15:55.3,15:55.3,2,39,-71.1579,42.3561,2400 3 3BR 2BA Apartment   80 Cresthill Rd -71.1579 42.3561,BOSTON,Inner Core,201.0,25025000201.0,Brighton,Brighton,BRIGHTON
179022,611051,2500,1, ONE BEDROOM ONE BATHROOM APARTMENT 56 HOBSON ST ,1BR/1BA Apartment - 56 Hobson St, ONE BEDROOM ONE BATHROOM APARTMENT 56 HOBSON ST ,,11/6/15 1:33,15:55.3,15:55.3,2,39,-71.162,42.3544,2500 1 1BR 1BA Apartment   56 Hobson St -71.162 42.3544,BOSTON,Inner Core,201.0,25025000201.0,Brighton,Brighton,BRIGHTON
179023,611052,2975,4, FOUR BEDROOM TWO BATHROOM APARTMENT 18 BRACKETT ST ,4BR/2BA Apartment - 18 Brackett St, FOUR BEDROOM TWO BATHROOM APARTMENT 18 BRACKETT ST ,,6/26/15 21:47,15:55.3,15:55.3,2,39,-71.1653,42.351,2975 4 4BR 2BA Apartment   18 Brackett St -71.1653 42.351,BOSTON,Inner Core,201.0,25025000201.0,Brighton,Brighton,BRIGHTON
179024,611053,1825,2, TWO BEDROOM ONE BATHROOM APARTMENT 103 TREMONT ST ,2BR/1BA Apartment - 103 Tremont St, TWO BEDROOM ONE BATHROOM APARTMENT 103 TREMONT ST ,,12/2/15 4:46,15:55.3,15:55.3,2,39,-71.1728,42.3511,1825 2 2BR 1BA Apartment   103 Tremont St -71.1728 42.3511,BOSTON,Inner Core,301.0,25025000301.0,Brighton,Brighton,BRIGHTON
179025,611054,4200,5, FIVE BEDROOM TWO BATHROOM APARTMENT 705 WASHINGTON ST ,5BR/2BA Apartment - 705 Washington St, FIVE BEDROOM TWO BATHROOM APARTMENT 705 WASHINGTON ST ,,6/26/15 21:49,15:55.3,15:55.3,2,39,-71.1725,42.3527,4200 5 5BR 2BA Apartment   705 Washington St -71.1725 42.3527,BOSTON,Inner Core,301.0,25025000301.0,Brighton,Brighton,BRIGHTON
179026,611055,1800,3, THREE BEDROOM ONE BATHROOM APARTMENT 48 BROOKS ST ,3BR/1BA Apartment - 48 Brooks St, THREE BEDROOM ONE BATHROOM APARTMENT 48 BROOKS ST ,,8/8/15 5:40,15:55.3,15:55.3,2,39,-71.1621,42.3559,1800 3 3BR 1BA Apartment   48 Brooks St -71.1621 42.3559,BOSTON,Inner Core,201.0,25025000201.0,Brighton,Brighton,BRIGHTON
179027,611056,2100,3, THREE BEDROOM ONE BATHROOM APARTMENT 28 LEICESTER ST ,3BR/1BA Apartment - 28 Leicester St, THREE BEDROOM ONE BATHROOM APARTMENT 28 LEICESTER ST ,,9/25/15 22:21,15:55.3,15:55.3,2,39,-71.1544,42.3502,2100 3 3BR 1BA Apartment   28 Leicester St -71.1544 42.3502,BOSTON,Inner Core,202.0,25025000202.0,Brighton,Brighton,BRIGHTON
179028,611057,2750,3, THREE BEDROOM TWO FIVE BATHROOM APARTMENT 100 SCHOOL ST ,3BR/2.5BA Apartment - 100 School St, THREE BEDROOM TWO FIVE BATHROOM APARTMENT 100 SCHOOL ST ,,10/3/15 18:08,15:55.3,15:55.3,2,39,-71.1661,42.3658,2750 3 3BR 2 5BA Apartment   100 School St -71.1661 42.3658,WATERTOWN,Inner Core,370400.0,25017370400.0,,,
179029,611058,2400,2, TWO BEDROOM ONE BATHROOM APARTMENT 40 TURNER ST ,2BR/1BA Apartment - 40 Turner St, TWO BEDROOM ONE BATHROOM APARTMENT 40 TURNER ST ,,10/15/15 23:44,15:55.3,15:55.3,2,39,-71.1621,42.3505,2400 2 2BR 1BA Apartment   40 Turner St -71.1621 42.3505,BOSTON,Inner Core,201.0,25025000201.0,Brighton,Brighton,BRIGHTON
179030,611059,2650,4, FOUR BEDROOM TWO BATHROOM APARTMENT 45 HOSMER ST ,4BR/2BA Apartment - 45 Hosmer St, FOUR BEDROOM TWO BATHROOM APARTMENT 45 HOSMER ST ,,10/10/15 17:45,15:55.3,15:55.3,2,39,-71.1674,42.3672,2650 4 4BR 2BA Apartment   45 Hosmer St -71.1674 42.3672,WATERTOWN,Inner Core,370400.0,25017370400.0,,,
179031,611060,3000,4, FOUR BEDROOM ONE BATHROOM APARTMENT 14 BURTON ST ,4BR/1BA Apartment - 14 Burton St, FOUR BEDROOM ONE BATHROOM APARTMENT 14 BURTON ST ,,7/24/15 17:37,15:55.3,15:55.3,2,39,-71.173,42.3537,3000 4 4BR 1BA Apartment   14 Burton St -71.173 42.3537,BOSTON,Inner Core,301.0,25025000301.0,Brighton,Brighton,BRIGHTON
179032,611061,2000,3, THREE BEDROOM ONE BATHROOM APARTMENT 44 BRACKETT ST ,3BR/1BA Apartment - 44 Brackett St, THREE BEDROOM ONE BATHROOM APARTMENT 44 BRACKETT ST ,,7/30/15 18:23,15:55.3,15:55.3,2,39,-71.1652,42.3517,2000 3 3BR 1BA Apartment   44 Brackett St -71.1652 42.3517,BOSTON,Inner Core,201.0,25025000201.0,Brighton,Brighton,BRIGHTON
179033,611062,2050,2, TWO BEDROOM ONE BATHROOM APARTMENT 21 CHESTNUT HILL AVE ,2BR/1BA Apartment - 21 Chestnut Hill Ave, TWO BEDROOM ONE BATHROOM APARTMENT 21 CHESTNUT HILL AVE ,,6/10/15 14:07,15:55.3,15:55.3,2,39,-71.1539,42.3483,2050 2 2BR 1BA Apartment   21 Chestnut Hill Ave -71.1539 42.3483,BOSTON,Inner Core,402.0,25025000402.0,Brighton,Brighton,BRIGHTON
179034,611063,3850,4, FOUR BEDROOM TWO BATHROOM APARTMENT 401 BOYLSTON ST ,4BR/2BA Apartment - 401 Boylston St, FOUR BEDROOM TWO BATHROOM APARTMENT 401 BOYLSTON ST ,,10/4/15 1:34,15:55.3,15:55.3,2,39,-71.1628,42.3707,3850 4 4BR 2BA Apartment   401 Boylston St -71.1628 42.3707,WATERTOWN,Inner Core,370300.0,25017370300.0,,,
179035,611064,2400,3, THREE BEDROOM ONE BATHROOM APARTMENT THREE RICKER TERRACE ,3BR/1BA Apartment - 3 Ricker Terrace, THREE BEDROOM ONE BATHROOM APARTMENT THREE RICKER TERRACE ,,8/23/15 16:54,15:55.3,15:55.3,2,39,-71.1746,42.351,2400 3 3BR 1BA Apartment   3 Ricker Terrace -71.1746 42.351,BOSTON,Inner Core,301.0,25025000301.0,Brighton,Brighton,BRIGHTON
179036,611065,3900,3, THREE BEDROOM ONE BATHROOM APARTMENT 46 SPRUCE ST ,3BR/1BA Apartment - 46 Spruce St, THREE BEDROOM ONE BATHROOM APARTMENT 46 SPRUCE ST ,,9/2/15 17:51,15:55.3,15:55.3,2,39,-71.1712,42.3682,3900 3 3BR 1BA Apartment   46 Spruce St -71.1712 42.3682,WATERTOWN,Inner Core,370400.0,25017370400.0,,,
179037,611066,2100,2, TWO BEDROOM ONE BATHROOM DUPLEX JUSTIN RD ,2BR/1BA Duplex - Justin Rd, TWO BEDROOM ONE BATHROOM DUPLEX JUSTIN RD ,,11/25/15 23:31,15:55.3,15:55.3,2,39,-71.1689,42.3532,2100 2 2BR 1BA Duplex   Justin Rd -71.1689 42.3532,BOSTON,Inner Core,301.0,25025000301.0,Brighton,Brighton,BRIGHTON
179038,611067,2800,4, FOUR BEDROOM ONE BATHROOM APARTMENT 29 FIFIELD ST ,4BR/1BA Apartment - 29 Fifield St, FOUR BEDROOM ONE BATHROOM APARTMENT 29 FIFIELD ST ,,11/4/15 21:18,15:55.3,15:55.3,2,39,-71.1785,42.3613,2800 4 4BR 1BA Apartment   29 Fifield St -71.1785 42.3613,WATERTOWN,Inner Core,370400.0,25017370400.0,,,
179039,611068,1925,2, TWO BEDROOM ONE BATHROOM APARTMENT 219 TREMONT ST ,2BR/1BA Apartment - 219 Tremont St, TWO BEDROOM ONE BATHROOM APARTMENT 219 TREMONT ST ,,12/2/15 8:10,15:55.4,15:55.4,2,39,-71.1771,42.3532,1925 2 2BR 1BA Apartment   219 Tremont St -71.1771 42.3532,NEWTON,Inner Core,373100.0,25017373100.0,,,
179040,611069,3000,4, FOUR BEDROOM TWO BATHROOM APARTMENT 14 PALFREY ST ,4BR/2BA Apartment - 14 Palfrey St, FOUR BEDROOM TWO BATHROOM APARTMENT 14 PALFREY ST ,,8/7/15 18:05,15:55.4,15:55.4,2,39,-71.1804,42.3679,3000 4 4BR 2BA Apartment   14 Palfrey St -71.1804 42.3679,WATERTOWN,Inner Core,370202.0,25017370202.0,,,
