,id,ask,bedrooms,title,original_title,cl_title,address,post_at,created_at,updated_at,source_id,survey_id,latitude,longitude,uniqueid,town,comm_type,tract10,ct10_id,neighborhood_01,neighborhood_02,neighborhood_03
180550,612577,2500,3, THREE BEDROOM THREE FIVE BATHROOM APARTMENT 49 BURT ST ,3BR/3.5BA Apartment - 49 Burt St, THREE BEDROOM THREE FIVE BATHROOM APARTMENT 49 BURT ST ,,11/20/15 1:02,17:50.8,17:50.8,2,39,-71.0691,42.2845,2500 3 3BR 3 5BA Apartment   49 Burt St -71.0691 42.2845,BOSTON,Inner Core,100400.0,25025100400.0,Dorchester,Dorchester,FOURCORN CODMAN
180551,612578,3850,2, TWO BEDROOM TWO BATHROOM APARTMENT 161 S HUNTINGTON AVE ,2BR/2BA Apartment - 161 S Huntington Ave, TWO BEDROOM TWO BATHROOM APARTMENT 161 S HUNTINGTON AVE ,,8/8/15 6:21,17:50.8,17:50.8,2,39,-71.1107,42.3283,3850 2 2BR 2BA Apartment   161 S Huntington Ave -71.1107 42.3283,BOSTON,Inner Core,120700.0,25025120700.0,Jamaica Plain,Jamaica Plain,JP PONDSIDE
180552,612579,8500,3, THREE BEDROOM TWO BATHROOM APARTMENT TEN CHARLESGATE E ,3BR/2BA Apartment - 10 Charlesgate E, THREE BEDROOM TWO BATHROOM APARTMENT TEN CHARLESGATE E ,,6/26/15 21:48,17:50.8,17:50.8,2,39,-71.0915,42.349,8500 3 3BR 2BA Apartment   10 Charlesgate E -71.0915 42.349,BOSTON,Inner Core,10104.0,25025010104.0,Fenway,Back Bay,BACK BAY B HILL
180553,612580,4500,5, FIVE BEDROOM ONE FIVE BATHROOM APARTMENT 55 HILLSIDE ST ,5BR/1.5BA Apartment - 55 Hillside St, FIVE BEDROOM ONE FIVE BATHROOM APARTMENT 55 HILLSIDE ST ,,6/10/15 14:08,17:50.8,17:50.8,2,39,-71.1014,42.3302,4500 5 5BR 1 5BA Apartment   55 Hillside St -71.1014 42.3302,BOSTON,Inner Core,80900.0,25025080900.0,Mission Hill,Mission Hill,MISSION HILL
180554,612581,3450,2, TWO BEDROOM ONE BATHROOM APARTMENT 77 FULTON ST ,2BR/1BA Apartment - 77 Fulton St, TWO BEDROOM ONE BATHROOM APARTMENT 77 FULTON ST ,,10/17/15 14:03,17:50.8,17:50.8,2,39,-71.0534,42.362,3450 2 2BR 1BA Apartment   77 Fulton St -71.0534 42.362,BOSTON,Inner Core,30300.0,25025030300.0,Downtown,North End,N END/WATERFRONT
180555,612582,2250,2, TWO BEDROOM ONE BATHROOM APARTMENT 130 TUDOR ST ,2BR/1BA Apartment - 130 Tudor St, TWO BEDROOM ONE BATHROOM APARTMENT 130 TUDOR ST ,,11/28/15 0:20,17:50.8,17:50.8,2,39,-71.0522,42.3358,2250 2 2BR 1BA Apartment   130 Tudor St -71.0522 42.3358,BOSTON,Inner Core,60800.0,25025060800.0,South Boston,South Boston,ANDREWS SQ
180556,612583,1895,3, THREE BEDROOM ONE FIVE BATHROOM APARTMENT 1121 WASHINGTON ST ,3BR/1.5BA Apartment - 1121 Washington St, THREE BEDROOM ONE FIVE BATHROOM APARTMENT 1121 WASHINGTON ST ,,10/26/15 0:53,17:50.8,17:50.8,2,39,-70.9469,42.1215,1895 3 3BR 1 5BA Apartment   1121 Washington St -70.9469 42.1215,ABINGTON,Developing Suburbs,520100.0,25023520100.0,,,
180557,612584,4800,3, THREE BEDROOM ONE BATHROOM APARTMENT 71 GAINSBOROUGH ST ,3BR/1BA Apartment - 71 Gainsborough St, THREE BEDROOM ONE BATHROOM APARTMENT 71 GAINSBOROUGH ST ,,12/4/15 1:06,17:50.8,17:50.8,2,39,-71.0877,42.3423,4800 3 3BR 1BA Apartment   71 Gainsborough St -71.0877 42.3423,BOSTON,Inner Core,10404.0,25025010404.0,Fenway,Fenway,FENWAY
180558,612585,3650,3, THREE BEDROOM ONE BATHROOM APARTMENT 34 ISABELLA ST ,3BR/1BA Apartment - 34 Isabella St, THREE BEDROOM ONE BATHROOM APARTMENT 34 ISABELLA ST ,,8/8/15 6:31,17:50.8,17:50.8,2,39,-71.0708,42.3486,3650 3 3BR 1BA Apartment   34 Isabella St -71.0708 42.3486,BOSTON,Inner Core,70300.0,25025070300.0,South End,Bay Village,PK SQ BAY VILL
180559,612586,2200,1, ONE BEDROOM ONE BATHROOM APARTMENT 34 MT VERNON ST ,1BR/1BA Apartment - 34 Mt Vernon St, ONE BEDROOM ONE BATHROOM APARTMENT 34 MT VERNON ST ,,9/22/15 15:26,17:54.5,17:54.5,2,39,-71.0658,42.3583,2200 1 1BR 1BA Apartment   34 Mt Vernon St -71.0658 42.3583,BOSTON,Inner Core,20101.0,25025020101.0,Beacon Hill,Beacon Hill,BACK BAY B HILL
180560,612587,2075,2, TWO BEDROOM ONE BATHROOM APARTMENT 2973 WASHINGTON ST ,2BR/1BA Apartment - 2973 Washington St, TWO BEDROOM ONE BATHROOM APARTMENT 2973 WASHINGTON ST ,,6/10/15 14:43,17:54.5,17:54.5,2,39,-71.0963,42.3178,2075 2 2BR 1BA Apartment   2973 Washington St -71.0963 42.3178,BOSTON,Inner Core,81500.0,25025081500.0,Roxbury,Roxbury,HP EGLESTON
180561,612588,2500,1, ONE BEDROOM ONE BATHROOM CONDO 151 TREMONT ST ,1BR/1BA Condo - 151 Tremont St, ONE BEDROOM ONE BATHROOM CONDO 151 TREMONT ST ,,10/20/15 17:51,17:54.5,17:54.5,2,39,-71.0634,42.3545,2500 1 1BR 1BA Condo   151 Tremont St -71.0634 42.3545,BOSTON,Inner Core,70101.0,25025070101.0,Downtown,Downtown,CHINATOWN/FINANCIAL
180562,612589,2100,1, ONE BEDROOM ONE BATHROOM APARTMENT 725 BOYLSTON ST ,1BR/1BA Apartment - 725 Boylston St, ONE BEDROOM ONE BATHROOM APARTMENT 725 BOYLSTON ST ,,8/8/15 6:31,17:54.5,17:54.5,2,39,-71.0802,42.3496,2100 1 1BR 1BA Apartment   725 Boylston St -71.0802 42.3496,BOSTON,Inner Core,10701.0,25025010701.0,Back Bay,Back Bay,BACK BAY B HILL
180563,612590,2800,3, THREE BEDROOM ONE FIVE BATHROOM APARTMENT 400 CENTRE ST ,3BR/1.5BA Apartment - 400 Centre St, THREE BEDROOM ONE FIVE BATHROOM APARTMENT 400 CENTRE ST ,,8/8/15 5:27,17:54.5,17:54.5,2,39,-71.11,42.3213,2800 3 3BR 1 5BA Apartment   400 Centre St -71.11 42.3213,BOSTON,Inner Core,120600.0,25025120600.0,Jamaica Plain,Jamaica Plain,JP PONDSIDE
180564,612591,2263,2, TWO BEDROOM TWO BATHROOM ONE AVALON DR ,2BR/2BA  - 1 Avalon Dr, TWO BEDROOM TWO BATHROOM ONE AVALON DR ,,11/9/15 16:51,17:54.5,17:54.5,2,39,-70.9543,42.2075,2263 2 2BR 2BA    1 Avalon Dr -70.9543 42.2075,WEYMOUTH,Maturing Suburbs,422400.0,25021422400.0,,,
180565,612592,1705,2, TWO BEDROOM ONE FIVE BATHROOM APARTMENT TWO CHESTNUT W ,2BR/1.5BA Apartment - 2 Chestnut W, TWO BEDROOM ONE FIVE BATHROOM APARTMENT TWO CHESTNUT W ,,9/25/15 21:41,17:54.5,17:54.5,2,39,-71.0718,42.1776,1705 2 2BR 1 5BA Apartment   2 Chestnut W -71.0718 42.1776,RANDOLPH,Maturing Suburbs,420202.0,25021420202.0,,,
180566,612593,2400,3, THREE BEDROOM ONE BATHROOM APARTMENT 90 FISHER AVE ,3BR/1BA Apartment - 90 Fisher Ave, THREE BEDROOM ONE BATHROOM APARTMENT 90 FISHER AVE ,,8/11/15 22:42,17:54.6,17:54.6,2,39,-71.1039,42.3277,2400 3 3BR 1BA Apartment   90 Fisher Ave -71.1039 42.3277,BOSTON,Inner Core,81100.0,25025081100.0,Mission Hill,Mission Hill,MISSION HILL
180567,612594,2100,2, TWO BEDROOM TWO BATHROOM APARTMENT 240 HEATH ST ,2BR/2BA Apartment - 240 Heath St, TWO BEDROOM TWO BATHROOM APARTMENT 240 HEATH ST ,,11/20/15 1:46,17:54.6,17:54.6,2,39,-71.108,42.3272,2100 2 2BR 2BA Apartment   240 Heath St -71.108 42.3272,BOSTON,Inner Core,81100.0,25025081100.0,Mission Hill,Mission Hill,MISSION HILL
180568,612595,3200,2, TWO BEDROOM ONE BATHROOM APARTMENT 386 COMMONWEALTH AVENUE ,2BR/1BA Apartment - 386 Commonwealth Avenue, TWO BEDROOM ONE BATHROOM APARTMENT 386 COMMONWEALTH AVENUE ,,6/26/15 21:48,17:54.6,17:54.6,2,39,-71.0898,42.3488,3200 2 2BR 1BA Apartment   386 Commonwealth Avenue -71.0898 42.3488,BOSTON,Inner Core,10104.0,25025010104.0,Fenway,Back Bay,BACK BAY B HILL
180569,612596,2900,2, TWO BEDROOM ONE BATHROOM APARTMENT 1064 BEACON ST ,2BR/1BA Apartment - 1064 Beacon St, TWO BEDROOM ONE BATHROOM APARTMENT 1064 BEACON ST ,,9/2/15 18:03,17:54.6,17:54.6,2,39,-71.1098,42.3456,2900 2 2BR 1BA Apartment   1064 Beacon St -71.1098 42.3456,BROOKLINE,Inner Core,400100.0,25021400100.0,,,
180570,612597,2050,0, 0 BEDROOM ONE BATHROOM APARTMENT 103 BEACON ST ,0BR/1BA Apartment - 103 Beacon St, 0 BEDROOM ONE BATHROOM APARTMENT 103 BEACON ST ,,9/18/15 17:37,17:54.6,17:54.6,2,39,-71.0731,42.3553,2050 0 0BR 1BA Apartment   103 Beacon St -71.0731 42.3553,BOSTON,Inner Core,10801.0,25025010801.0,Back Bay,Back Bay,BACK BAY B HILL
180571,612598,2800,2, TWO BEDROOM ONE BATHROOM APARTMENT 81 PARK DR ,2BR/1BA Apartment - 81 Park Dr, TWO BEDROOM ONE BATHROOM APARTMENT 81 PARK DR ,,3/26/15 20:13,17:54.6,17:54.6,2,39,-71.0959,42.3423,2800 2 2BR 1BA Apartment   81 Park Dr -71.0959 42.3423,BOSTON,Inner Core,10408.0,25025010408.0,Fenway,Fenway,FENWAY
180572,612599,2100,1, ONE BEDROOM ONE BATHROOM APARTMENT 16 CUMBERLAND ST ,1BR/1BA Apartment - 16 Cumberland St, ONE BEDROOM ONE BATHROOM APARTMENT 16 CUMBERLAND ST ,,8/15/15 17:11,17:54.6,17:54.6,2,39,-71.0819,42.3436,2100 1 1BR 1BA Apartment   16 Cumberland St -71.0819 42.3436,BOSTON,Inner Core,10500.0,25025010500.0,Back Bay,Back Bay,BACK BAY B HILL
180573,612600,3550,4, FOUR BEDROOM ONE BATHROOM APARTMENT 101 CALUMET ST ,4BR/1BA Apartment - 101 Calumet St, FOUR BEDROOM ONE BATHROOM APARTMENT 101 CALUMET ST ,,6/10/15 14:08,17:54.6,17:54.6,2,39,-71.1034,42.3313,3550 4 4BR 1BA Apartment   101 Calumet St -71.1034 42.3313,BOSTON,Inner Core,80900.0,25025080900.0,Mission Hill,Mission Hill,MISSION HILL
180574,612601,4500,2, TWO BEDROOM ONE FIVE BATHROOM APARTMENT 51 APPLETON ST ,2BR/1.5BA Apartment - 51 Appleton St, TWO BEDROOM ONE FIVE BATHROOM APARTMENT 51 APPLETON ST ,,10/10/15 17:52,17:54.6,17:54.6,2,39,-71.0723,42.346,4500 2 2BR 1 5BA Apartment   51 Appleton St -71.0723 42.346,BOSTON,Inner Core,70300.0,25025070300.0,South End,South End,SOUTH END
180575,612602,2100,1, ONE BEDROOM ONE BATHROOM APARTMENT 81 MT VERNON ST ,1BR/1BA Apartment - 81 Mt Vernon St, ONE BEDROOM ONE BATHROOM APARTMENT 81 MT VERNON ST ,,8/8/15 6:31,17:54.6,17:54.6,2,39,-71.0673,42.3584,2100 1 1BR 1BA Apartment   81 Mt Vernon St -71.0673 42.3584,BOSTON,Inner Core,20101.0,25025020101.0,Beacon Hill,Beacon Hill,BACK BAY B HILL
180576,612603,2000,1, ONE BEDROOM ONE BATHROOM APARTMENT 200 HARVARD ST ,1BR/1BA Apartment - 200 Harvard St, ONE BEDROOM ONE BATHROOM APARTMENT 200 HARVARD ST ,,8/26/15 17:24,17:54.6,17:54.6,2,39,-71.0981,42.367,2000 1 1BR 1BA Apartment   200 Harvard St -71.0981 42.367,CAMBRIDGE,Inner Core,352500.0,25017352500.0,The Port,,
180577,612604,5300,3, THREE BEDROOM THREE BATHROOM APARTMENT 119 COMMONWEALTH AVENUE ,3BR/3BA Apartment - 119 Commonwealth Avenue, THREE BEDROOM THREE BATHROOM APARTMENT 119 COMMONWEALTH AVENUE ,,9/12/15 22:48,17:54.6,17:54.6,2,39,-71.0773,42.3526,5300 3 3BR 3BA Apartment   119 Commonwealth Avenue -71.0773 42.3526,BOSTON,Inner Core,10702.0,25025010702.0,Back Bay,Back Bay,BACK BAY B HILL
180578,612605,4900,4, FOUR BEDROOM ONE BATHROOM APARTMENT 309 HUNTINGTON AVE ,4BR/1BA Apartment - 309 Huntington Ave, FOUR BEDROOM ONE BATHROOM APARTMENT 309 HUNTINGTON AVE ,,3/26/15 20:11,17:54.6,17:54.6,2,39,-71.0874,42.3411,4900 4 4BR 1BA Apartment   309 Huntington Ave -71.0874 42.3411,BOSTON,Inner Core,10404.0,25025010404.0,Fenway,Fenway,FENWAY
180579,612606,2050,1, ONE BEDROOM ONE BATHROOM APARTMENT 107 PINCKNEY ST ,1BR/1BA Apartment - 107 Pinckney St, ONE BEDROOM ONE BATHROOM APARTMENT 107 PINCKNEY ST ,,11/6/15 1:54,17:54.6,17:54.6,2,39,-71.0697,42.3589,2050 1 1BR 1BA Apartment   107 Pinckney St -71.0697 42.3589,BOSTON,Inner Core,20101.0,25025020101.0,Beacon Hill,Beacon Hill,BACK BAY B HILL
180580,612607,2060,1, ONE BEDROOM ONE BATHROOM APARTMENT 1161 BOYLSTON ST ,1BR/1BA Apartment - 1161 Boylston St, ONE BEDROOM ONE BATHROOM APARTMENT 1161 BOYLSTON ST ,,8/26/15 17:31,17:54.6,17:54.6,2,39,-71.0933,42.3471,2060 1 1BR 1BA Apartment   1161 Boylston St -71.0933 42.3471,BOSTON,Inner Core,10203.0,25025010203.0,Fenway,Fenway,FENWAY
180581,612608,2900,3, THREE BEDROOM ONE BATHROOM APARTMENT 59 HILLSIDE ST ,3BR/1BA Apartment - 59 Hillside St, THREE BEDROOM ONE BATHROOM APARTMENT 59 HILLSIDE ST ,,12/4/15 4:15,17:54.6,17:54.6,2,39,-71.1017,42.3302,2900 3 3BR 1BA Apartment   59 Hillside St -71.1017 42.3302,BOSTON,Inner Core,81001.0,25025081001.0,Mission Hill,Mission Hill,MISSION HILL
180582,612609,1610,2, TWO BEDROOM ONE BATHROOM APARTMENT ,2BR/1BA Apartment, TWO BEDROOM ONE BATHROOM APARTMENT ,,12/6/15 14:49,17:54.6,17:54.6,2,39,-71.1001971,42.2694187,1610 2 2BR 1BA Apartment -71.1001971 42.2694187,BOSTON,Inner Core,101001.0,25025101001.0,Mattapan,Mattapan,MATTAPAN
180583,612610,3000,2, TWO BEDROOM ONE BATHROOM APARTMENT 180 ENDICOTT ST ,2BR/1BA Apartment - 180 Endicott St, TWO BEDROOM ONE BATHROOM APARTMENT 180 ENDICOTT ST ,,12/2/15 4:48,17:54.6,17:54.6,2,39,-71.0578,42.366,3000 2 2BR 1BA Apartment   180 Endicott St -71.0578 42.366,BOSTON,Inner Core,30200.0,25025030200.0,North End,North End,N END/WATERFRONT
180584,612611,2400,0, 0 BEDROOM ONE BATHROOM APARTMENT 151 TREMONT ST ,0BR/1BA Apartment - 151 Tremont St, 0 BEDROOM ONE BATHROOM APARTMENT 151 TREMONT ST ,,9/22/15 16:12,17:54.6,17:54.6,2,39,-71.0634,42.3545,2400 0 0BR 1BA Apartment   151 Tremont St -71.0634 42.3545,BOSTON,Inner Core,70101.0,25025070101.0,Downtown,Downtown,CHINATOWN/FINANCIAL
180585,612612,3200,3, THREE BEDROOM ONE BATHROOM APARTMENT 15 MISSION ST ,3BR/1BA Apartment - 15 Mission St, THREE BEDROOM ONE BATHROOM APARTMENT 15 MISSION ST ,,11/28/15 15:12,17:54.6,17:54.6,2,39,-71.1071,42.3328,3200 3 3BR 1BA Apartment   15 Mission St -71.1071 42.3328,BOSTON,Inner Core,81001.0,25025081001.0,Mission Hill,Mission Hill,MISSION HILL
180586,612613,2100,0, 0 BEDROOM ONE BATHROOM APARTMENT 90 STREET BOTOLPH ST ,0BR/1BA Apartment - 90 St Botolph St, 0 BEDROOM ONE BATHROOM APARTMENT 90 STREET BOTOLPH ST ,,11/13/15 16:14,17:54.7,17:54.7,2,39,-71.0803,42.345,2100 0 0BR 1BA Apartment   90 St Botolph St -71.0803 42.345,BOSTON,Inner Core,10600.0,25025010600.0,Back Bay,Back Bay,BACK BAY B HILL
180587,612614,2800,1, ONE BEDROOM ONE BATHROOM APARTMENT 224 COMMONWEALTH AVENUE ,1BR/1BA Apartment - 224 Commonwealth Avenue, ONE BEDROOM ONE BATHROOM APARTMENT 224 COMMONWEALTH AVENUE ,,11/13/15 16:00,17:54.7,17:54.7,2,39,-71.0816,42.3505,2800 1 1BR 1BA Apartment   224 Commonwealth Avenue -71.0816 42.3505,BOSTON,Inner Core,10701.0,25025010701.0,Back Bay,Back Bay,BACK BAY B HILL
180588,612615,2795,2, TWO BEDROOM TWO BATHROOM APARTMENT 1078 BOYLSTON ST ,2BR/2BA Apartment - 1078 Boylston St, TWO BEDROOM TWO BATHROOM APARTMENT 1078 BOYLSTON ST ,,9/13/15 18:04,17:54.7,17:54.7,2,39,-71.0882,42.3472,2795 2 2BR 2BA Apartment   1078 Boylston St -71.0882 42.3472,BOSTON,Inner Core,10203.0,25025010203.0,Fenway,Fenway,FENWAY
180589,612616,2400,2, TWO BEDROOM ONE BATHROOM APARTMENT 833 BEACON ST ,2BR/1BA Apartment - 833 Beacon St, TWO BEDROOM ONE BATHROOM APARTMENT 833 BEACON ST ,,12/4/15 15:00,17:54.7,17:54.7,2,39,-71.1027,42.3472,2400 2 2BR 1BA Apartment   833 Beacon St -71.1027 42.3472,BOSTON,Inner Core,10204.0,25025010204.0,Fenway,Fenway,FENWAY
180590,612617,3600,3, THREE BEDROOM TWO BATHROOM APARTMENT 24 SUSSEX ST ,3BR/2BA Apartment - 24 Sussex St, THREE BEDROOM TWO BATHROOM APARTMENT 24 SUSSEX ST ,,12/2/15 0:39,17:54.7,17:54.7,2,39,-71.0836,42.3359,3600 3 3BR 2BA Apartment   24 Sussex St -71.0836 42.3359,BOSTON,Inner Core,80500.0,25025080500.0,Roxbury,Roxbury,SOUTH END
180591,612618,2700,3, THREE BEDROOM ONE BATHROOM APARTMENT SIX WAIT ST ,3BR/1BA Apartment - 6 Wait St, THREE BEDROOM ONE BATHROOM APARTMENT SIX WAIT ST ,,1/26/15 18:32,17:54.7,17:54.7,2,39,-71.1059,42.3332,2700 3 3BR 1BA Apartment   6 Wait St -71.1059 42.3332,BOSTON,Inner Core,81001.0,25025081001.0,Mission Hill,Mission Hill,MISSION HILL
180592,612619,1925,1, ONE BEDROOM ONE BATHROOM APARTMENT 55 QUEENSBERRY ST ,1BR/1BA Apartment - 55 Queensberry St, ONE BEDROOM ONE BATHROOM APARTMENT 55 QUEENSBERRY ST ,,10/3/15 18:09,17:54.7,17:54.7,2,39,-71.0976,42.3428,1925 1 1BR 1BA Apartment   55 Queensberry St -71.0976 42.3428,BOSTON,Inner Core,10203.0,25025010203.0,Fenway,Fenway,FENWAY
180593,612620,1460,1, ONE BEDROOM ONE BATHROOM APARTMENT ,1BR/1BA Apartment, ONE BEDROOM ONE BATHROOM APARTMENT ,,12/6/15 14:47,17:54.7,17:54.7,2,39,-71.0493252,42.1629094,1460 1 1BR 1BA Apartment -71.0493252 42.1629094,RANDOLPH,Maturing Suburbs,420302.0,25021420302.0,,,
180594,612621,2250,1, ONE BEDROOM ONE BATHROOM APARTMENT TEN STREET GERMAIN ST ,1BR/1BA Apartment - 10 St Germain St, ONE BEDROOM ONE BATHROOM APARTMENT TEN STREET GERMAIN ST ,,8/15/15 17:12,17:54.7,17:54.7,2,39,-71.0865,42.346,2250 1 1BR 1BA Apartment   10 St Germain St -71.0865 42.346,BOSTON,Inner Core,10500.0,25025010500.0,Back Bay,Back Bay,FENWAY
180595,612622,2250,0, 0 BEDROOM TWO BATHROOM APARTMENT 88 F ST ,0BR/2BA Apartment - 88 F St, 0 BEDROOM TWO BATHROOM APARTMENT 88 F ST ,,8/8/15 6:07,17:54.7,17:54.7,2,39,-71.0495,42.3355,2250 0 0BR 2BA Apartment   88 F St -71.0495 42.3355,BOSTON,Inner Core,60800.0,25025060800.0,South Boston,South Boston,ANDREWS SQ
180596,612623,3600,4, FOUR BEDROOM ONE BATHROOM APARTMENT 684 PARKER ST ,4BR/1BA Apartment - 684 Parker St, FOUR BEDROOM ONE BATHROOM APARTMENT 684 PARKER ST ,,11/26/15 0:43,17:54.7,17:54.7,2,39,-71.0966,42.3322,3600 4 4BR 1BA Apartment   684 Parker St -71.0966 42.3322,BOSTON,Inner Core,80801.0,25025080801.0,Mission Hill,Mission Hill,MISSION HILL
180597,612624,1995,1, ONE BEDROOM ONE BATHROOM APARTMENT 528 E 3RD ST ,1BR/1BA Apartment - 528 E 3rd St, ONE BEDROOM ONE BATHROOM APARTMENT 528 E 3RD ST ,,12/4/15 1:22,17:54.7,17:54.7,2,39,-71.0386,42.3366,1995 1 1BR 1BA Apartment   528 E 3rd St -71.0386 42.3366,BOSTON,Inner Core,60501.0,25025060501.0,South Boston,South Boston,SOUTH BOSTON
180598,612625,4800,4, FOUR BEDROOM THREE BATHROOM APARTMENT 27 WORTHINGTON ST ,4BR/3BA Apartment - 27 Worthington St, FOUR BEDROOM THREE BATHROOM APARTMENT 27 WORTHINGTON ST ,,8/8/15 3:14,17:54.7,17:54.7,2,39,-71.1019,42.3343,4800 4 4BR 3BA Apartment   27 Worthington St -71.1019 42.3343,BOSTON,Inner Core,80900.0,25025080900.0,Mission Hill,Mission Hill,FENWAY
180599,612626,2500,4, FOUR BEDROOM TWO BATHROOM HOUSE 64 CHARLES ST ,4BR/2BA House - 64 Charles St, FOUR BEDROOM TWO BATHROOM HOUSE 64 CHARLES ST ,,9/12/15 16:01,17:54.7,17:54.7,2,39,-71.0644,42.2997,2500 4 4BR 2BA House   64 Charles St -71.0644 42.2997,BOSTON,Inner Core,92000.0,25025092000.0,Dorchester,Dorchester,FOURCORN CODMAN
180600,612627,4500,3, THREE BEDROOM TWO BATHROOM APARTMENT 54 TEMPLE ST ,3BR/2BA Apartment - 54 Temple St, THREE BEDROOM TWO BATHROOM APARTMENT 54 TEMPLE ST ,,10/31/15 23:56,17:54.7,17:54.7,2,39,-71.0635,42.3598,4500 3 3BR 2BA Apartment   54 Temple St -71.0635 42.3598,BOSTON,Inner Core,20302.0,25025020302.0,Beacon Hill,Beacon Hill,BACK BAY B HILL
180601,612628,2375,0, 0 BEDROOM ONE BATHROOM APARTMENT 601 ALBANY ST ,0BR/1BA Apartment - 601 Albany St, 0 BEDROOM ONE BATHROOM APARTMENT 601 ALBANY ST ,,3/26/15 20:22,17:54.7,17:54.7,2,39,-71.0687,42.3372,2375 0 0BR 1BA Apartment   601 Albany St -71.0687 42.3372,BOSTON,Inner Core,71101.0,25025071101.0,South End,South End,SOUTH END
180602,612629,3000,1, ONE BEDROOM TWO BATHROOM APARTMENT NINE WORTHINGTON ST ,1BR/2BA Apartment - 9 Worthington St, ONE BEDROOM TWO BATHROOM APARTMENT NINE WORTHINGTON ST ,,11/13/15 12:02,17:54.7,17:54.7,2,39,-71.1021,42.3339,3000 1 1BR 2BA Apartment   9 Worthington St -71.1021 42.3339,BOSTON,Inner Core,80900.0,25025080900.0,Mission Hill,Mission Hill,FENWAY
180603,612630,3200,1, ONE BEDROOM ONE BATHROOM APARTMENT 355 CONGRESS ST ,1BR/1BA Apartment - 355 Congress St, ONE BEDROOM ONE BATHROOM APARTMENT 355 CONGRESS ST ,,5/20/15 13:51,17:54.7,17:54.7,2,39,-71.0484,42.3501,3200 1 1BR 1BA Apartment   355 Congress St -71.0484 42.3501,BOSTON,Inner Core,60600.0,25025060600.0,South Boston Waterfront,South Boston Waterfront,SEAPORT FT PT
180604,612631,3900,5, FIVE BEDROOM TWO BATHROOM APARTMENT SIX WESTERLY ST ,5BR/2BA Apartment - 6 Westerly St, FIVE BEDROOM TWO BATHROOM APARTMENT SIX WESTERLY ST ,,8/8/15 5:27,17:54.7,17:54.7,2,39,-71.1069,42.3231,3900 5 5BR 2BA Apartment   6 Westerly St -71.1069 42.3231,BOSTON,Inner Core,81200.0,25025081200.0,Jamaica Plain,Jamaica Plain,JP PONDSIDE
180605,612632,2200,1, ONE BEDROOM ONE 0 BATHROOM 800 SQFT TWO 200 ONE BR ,"One BR, 1.0 BA, 800 sqft, $2,200 - One BR", ONE BEDROOM ONE 0 BATHROOM 800 SQFT TWO 200 ONE BR ,,12/7/15 20:47,17:54.7,17:54.7,2,39,-71.055862,42.366506,2200 1 One BR  1 0 BA  800 sqft   2 200   One BR -71.055862 42.366506,BOSTON,Inner Core,30100.0,25025030100.0,North End,North End,N END/WATERFRONT
180606,612633,3500,2, TWO BEDROOM ONE BATHROOM APARTMENT 22 EUSTON ST ,2BR/1BA Apartment - 22 Euston St, TWO BEDROOM ONE BATHROOM APARTMENT 22 EUSTON ST ,,3/26/15 20:11,17:54.7,17:54.7,2,39,-71.1082,42.348,3500 2 2BR 1BA Apartment   22 Euston St -71.1082 42.348,BROOKLINE,Inner Core,400100.0,25021400100.0,,,
180607,612634,3800,3, THREE BEDROOM ONE BATHROOM DUPLEX 403 MASSACHUSETTS AVE ,3BR/1BA Duplex - 403 Massachusetts Ave, THREE BEDROOM ONE BATHROOM DUPLEX 403 MASSACHUSETTS AVE ,,11/22/15 17:31,17:54.8,17:54.8,2,39,-71.083,42.3411,3800 3 3BR 1BA Duplex   403 Massachusetts Ave -71.083 42.3411,BOSTON,Inner Core,70800.0,25025070800.0,South End,Roxbury,SOUTH END
180608,612635,2750,2, TWO BEDROOM ONE BATHROOM APARTMENT 108 MYRTLE ST ,2BR/1BA Apartment - 108 Myrtle St, TWO BEDROOM ONE BATHROOM APARTMENT 108 MYRTLE ST ,,11/13/15 16:04,17:54.8,17:54.8,2,39,-71.0684,42.3592,2750 2 2BR 1BA Apartment   108 Myrtle St -71.0684 42.3592,BOSTON,Inner Core,20101.0,25025020101.0,Beacon Hill,Beacon Hill,BACK BAY B HILL
180609,612636,2300,1, ONE BEDROOM ONE BATHROOM APARTMENT 554 MASSACHUSETTS AVE ,1BR/1BA Apartment - 554 Massachusetts Ave, ONE BEDROOM ONE BATHROOM APARTMENT 554 MASSACHUSETTS AVE ,,12/6/15 4:34,17:58.4,17:58.4,2,39,-71.0785,42.3384,2300 1 1BR 1BA Apartment   554 Massachusetts Ave -71.0785 42.3384,BOSTON,Inner Core,70900.0,25025070900.0,South End,South End,SOUTH END
180610,612637,3600,2, TWO BEDROOM ONE BATHROOM APARTMENT PARK DR ,2BR/1BA Apartment - Park Dr, TWO BEDROOM ONE BATHROOM APARTMENT PARK DR ,,12/8/15 23:31,17:58.4,17:58.4,2,39,-71.1046,42.3456,3600 2 2BR 1BA Apartment   Park Dr -71.1046 42.3456,BOSTON,Inner Core,10204.0,25025010204.0,Fenway,Fenway,FENWAY
180611,612638,5200,5, FIVE BEDROOM THREE BATHROOM APARTMENT 62 WYMAN ST ,5BR/3BA Apartment - 62 Wyman St, FIVE BEDROOM THREE BATHROOM APARTMENT 62 WYMAN ST ,,6/10/15 14:43,17:58.4,17:58.4,2,39,-71.1052,42.3207,5200 5 5BR 3BA Apartment   62 Wyman St -71.1052 42.3207,BOSTON,Inner Core,120500.0,25025120500.0,Jamaica Plain,Jamaica Plain,JP PONDSIDE
180612,612639,5525,3, THREE BEDROOM TWO BATHROOM APARTMENT FOUR EMERSON PL ,3BR/2BA Apartment - 4 Emerson Pl, THREE BEDROOM TWO BATHROOM APARTMENT FOUR EMERSON PL ,,8/8/15 6:41,17:58.4,17:58.4,2,39,-71.0686,42.3642,5525 3 3BR 2BA Apartment   4 Emerson Pl -71.0686 42.3642,BOSTON,Inner Core,20301.0,25025020301.0,West End,West End,N END/WATERFRONT
180613,612640,1250,0, 0 BEDROOM ONE BATHROOM APARTMENT 82 S HUNTINGTON AVE ,0BR/1BA Apartment - 82 S Huntington Ave, 0 BEDROOM ONE BATHROOM APARTMENT 82 S HUNTINGTON AVE ,,10/17/15 14:02,17:58.4,17:58.4,2,39,-71.1111,42.3295,1250 0 0BR 1BA Apartment   82 S Huntington Ave -71.1111 42.3295,BOSTON,Inner Core,81100.0,25025081100.0,Mission Hill,Jamaica Plain,MISSION HILL
180614,612641,6950,4, FOUR BEDROOM TWO FIVE BATHROOM APARTMENT 38 CLARENDON ST ,4BR/2.5BA Apartment - 38 Clarendon St, FOUR BEDROOM TWO FIVE BATHROOM APARTMENT 38 CLARENDON ST ,,10/2/15 17:51,17:58.4,17:58.4,2,39,-71.0728,42.3454,6950 4 4BR 2 5BA Apartment   38 Clarendon St -71.0728 42.3454,BOSTON,Inner Core,70600.0,25025070600.0,South End,South End,SOUTH END
180615,612642,1725,0, 0 BEDROOM ONE BATHROOM APARTMENT 309 HUNTINGTON AVE ,0BR/1BA Apartment - 309 Huntington Ave, 0 BEDROOM ONE BATHROOM APARTMENT 309 HUNTINGTON AVE ,,3/26/15 20:10,17:58.4,17:58.4,2,39,-71.0874,42.3411,1725 0 0BR 1BA Apartment   309 Huntington Ave -71.0874 42.3411,BOSTON,Inner Core,10404.0,25025010404.0,Fenway,Fenway,FENWAY
180616,612643,2200,2, TWO BEDROOM ONE BATHROOM APARTMENT 18 SPERIDAKIS TERRACE ,2BR/1BA Apartment - 18 Speridakis Terrace, TWO BEDROOM ONE BATHROOM APARTMENT 18 SPERIDAKIS TERRACE ,,11/27/15 16:20,17:58.5,17:58.5,2,39,-71.1067,42.36,2200 2 2BR 1BA Apartment   18 Speridakis Terrace -71.1067 42.36,CAMBRIDGE,Inner Core,353200.0,25017353200.0,Cambridgeport,,
180617,612644,2650,5, FIVE BEDROOM ONE BATHROOM APARTMENT 19 ROSECLAIR ST ,5BR/1BA Apartment - 19 Roseclair St, FIVE BEDROOM ONE BATHROOM APARTMENT 19 ROSECLAIR ST ,,8/20/15 21:57,17:58.5,17:58.5,2,39,-71.0604,42.3209,2650 5 5BR 1BA Apartment   19 Roseclair St -71.0604 42.3209,BOSTON,Inner Core,90700.0,25025090700.0,Dorchester,Dorchester,UPHAMS SAVIN
180618,612645,2000,1, ONE BEDROOM ONE BATHROOM APARTMENT 524 PUTNAM AVE ,1BR/1BA Apartment - 524 Putnam Ave, ONE BEDROOM ONE BATHROOM APARTMENT 524 PUTNAM AVE ,,8/19/15 17:28,17:58.5,17:58.5,2,39,-71.1088,42.3578,2000 1 1BR 1BA Apartment   524 Putnam Ave -71.1088 42.3578,CAMBRIDGE,Inner Core,353200.0,25017353200.0,Cambridgeport,,
180619,612646,2300,1, ONE BEDROOM ONE BATHROOM APARTMENT 65 STREET GERMAIN ST ,1BR/1BA Apartment - 65 St Germain St, ONE BEDROOM ONE BATHROOM APARTMENT 65 STREET GERMAIN ST ,,4/14/15 15:59,17:58.5,17:58.5,2,39,-71.0845,42.3454,2300 1 1BR 1BA Apartment   65 St Germain St -71.0845 42.3454,BOSTON,Inner Core,10500.0,25025010500.0,Back Bay,Back Bay,FENWAY
180620,612647,1550,0, 0 BEDROOM ONE BATHROOM APARTMENT 20 QUEENSBERRY ST ,0BR/1BA Apartment - 20 Queensberry St, 0 BEDROOM ONE BATHROOM APARTMENT 20 QUEENSBERRY ST ,,8/8/15 5:38,17:58.5,17:58.5,2,39,-71.0959,42.3434,1550 0 0BR 1BA Apartment   20 Queensberry St -71.0959 42.3434,BOSTON,Inner Core,10408.0,25025010408.0,Fenway,Fenway,FENWAY
180621,612648,2600,1, ONE BEDROOM ONE BATHROOM APARTMENT 263 NEWBURY ST ,1BR/1BA Apartment - 263 Newbury St, ONE BEDROOM ONE BATHROOM APARTMENT 263 NEWBURY ST ,,10/23/15 17:56,17:58.5,17:58.5,2,39,-71.0834,42.3496,2600 1 1BR 1BA Apartment   263 Newbury St -71.0834 42.3496,BOSTON,Inner Core,10701.0,25025010701.0,Back Bay,Back Bay,BACK BAY B HILL
180622,612649,3100,2, TWO BEDROOM ONE FIVE BATHROOM APARTMENT 940 MASSACHUSETTS AVE ,2BR/1.5BA Apartment - 940 Massachusetts Ave, TWO BEDROOM ONE FIVE BATHROOM APARTMENT 940 MASSACHUSETTS AVE ,,11/27/15 15:04,17:58.5,17:58.5,2,39,-71.1096,42.3686,3100 2 2BR 1 5BA Apartment   940 Massachusetts Ave -71.1096 42.3686,CAMBRIDGE,Inner Core,353800.0,25017353800.0,Riverside,,
180623,612650,2000,0, 0 BEDROOM ONE BATHROOM APARTMENT 40 CLARK ST ,0BR/1BA Apartment - 40 Clark St, 0 BEDROOM ONE BATHROOM APARTMENT 40 CLARK ST ,,9/30/15 17:58,17:58.5,17:58.5,2,39,-71.0526,42.3652,2000 0 0BR 1BA Apartment   40 Clark St -71.0526 42.3652,BOSTON,Inner Core,30500.0,25025030500.0,North End,North End,N END/WATERFRONT
180624,612651,4010,3, THREE BEDROOM ONE BATHROOM CONDO PARK DR ,3BR/1BA Condo - Park Dr, THREE BEDROOM ONE BATHROOM CONDO PARK DR ,,12/8/15 8:45,17:58.5,17:58.5,2,39,-71.1046,42.3456,4010 3 3BR 1BA Condo   Park Dr -71.1046 42.3456,BOSTON,Inner Core,10204.0,25025010204.0,Fenway,Fenway,FENWAY
180625,612652,3500,3, THREE BEDROOM TWO BATHROOM APARTMENT 244 RIVER ST ,3BR/2BA Apartment - 244 River St, THREE BEDROOM TWO BATHROOM APARTMENT 244 RIVER ST ,,10/1/15 17:58,17:58.5,17:58.5,2,39,-71.1114,42.3626,3500 3 3BR 2BA Apartment   244 River St -71.1114 42.3626,CAMBRIDGE,Inner Core,353400.0,25017353400.0,Cambridgeport,,
180626,612653,2900,2, TWO BEDROOM ONE BATHROOM APARTMENT 41 BAY STATE RD ,2BR/1BA Apartment - 41 Bay State Rd, TWO BEDROOM ONE BATHROOM APARTMENT 41 BAY STATE RD ,,3/26/15 20:10,17:58.5,17:58.5,2,39,-71.0952,42.3501,2900 2 2BR 1BA Apartment   41 Bay State Rd -71.0952 42.3501,BOSTON,Inner Core,10104.0,25025010104.0,Fenway,Fenway,FENWAY
180627,612654,1780,2, TWO BEDROOM TWO BATHROOM APARTMENT 3101 STAGECOACH RD ,2BR/2BA Apartment - 3101 Stagecoach Rd, TWO BEDROOM TWO BATHROOM APARTMENT 3101 STAGECOACH RD ,,8/31/14 11:51,17:58.5,17:58.5,2,39,-71.0994,42.1462,1780 2 2BR 2BA Apartment   3101 Stagecoach Rd -71.0994 42.1462,STOUGHTON,Maturing Suburbs,456200.0,25021456200.0,,,
180628,612655,1842,1, ONE BEDROOM ONE BATHROOM ONE AVALON DR ,1BR/1BA  - 1 Avalon Dr, ONE BEDROOM ONE BATHROOM ONE AVALON DR ,,8/28/15 15:49,17:58.5,17:58.5,2,39,-70.9543,42.2075,1842 1 1BR 1BA    1 Avalon Dr -70.9543 42.2075,WEYMOUTH,Maturing Suburbs,422400.0,25021422400.0,,,
180629,612656,2300,1, ONE BEDROOM ONE BATHROOM APARTMENT 86 JERSEY ST ,1BR/1BA Apartment - 86 Jersey St, ONE BEDROOM ONE BATHROOM APARTMENT 86 JERSEY ST ,,9/27/15 17:18,17:58.5,17:58.5,2,39,-71.0973,42.3439,2300 1 1BR 1BA Apartment   86 Jersey St -71.0973 42.3439,BOSTON,Inner Core,10203.0,25025010203.0,Fenway,Fenway,FENWAY
180630,612657,2200,3, THREE BEDROOM ONE BATHROOM APARTMENT 17 CHILCOTT PL ,3BR/1BA Apartment - 17 Chilcott Pl, THREE BEDROOM ONE BATHROOM APARTMENT 17 CHILCOTT PL ,,8/3/15 21:37,17:58.5,17:58.5,2,39,-71.0996,42.313,2200 3 3BR 1BA Apartment   17 Chilcott Pl -71.0996 42.313,BOSTON,Inner Core,120301.0,25025120301.0,Jamaica Plain,Jamaica Plain,HP EGLESTON
180631,612658,1950,0, 0 BEDROOM ONE BATHROOM APARTMENT 107 CHANDLER ST ,0BR/1BA Apartment - 107 Chandler St, 0 BEDROOM ONE BATHROOM APARTMENT 107 CHANDLER ST ,,11/22/15 17:03,17:58.5,17:58.5,2,39,-71.0736,42.3465,1950 0 0BR 1BA Apartment   107 Chandler St -71.0736 42.3465,BOSTON,Inner Core,70300.0,25025070300.0,South End,South End,SOUTH END
180632,612659,3750,4, FOUR BEDROOM TWO BATHROOM APARTMENT 1033 BEACON ST ,4BR/2BA Apartment - 1033 Beacon St, FOUR BEDROOM TWO BATHROOM APARTMENT 1033 BEACON ST ,,8/27/15 22:23,17:58.5,17:58.5,2,39,-71.1081,42.3455,3750 4 4BR 2BA Apartment   1033 Beacon St -71.1081 42.3455,BROOKLINE,Inner Core,400100.0,25021400100.0,,,
180633,612660,2450,2, TWO BEDROOM ONE BATHROOM HOUSE 142 WEBSTER AVE ,2BR/1BA House - 142 Webster Ave, TWO BEDROOM ONE BATHROOM HOUSE 142 WEBSTER AVE ,,10/6/15 18:10,17:58.5,17:58.5,2,39,-71.0936,42.3699,2450 2 2BR 1BA House   142 Webster Ave -71.0936 42.3699,CAMBRIDGE,Inner Core,352600.0,25017352600.0,Wellington-Harrington,,
180634,612661,2095,1, ONE BEDROOM ONE BATHROOM APARTMENT 100 CANTON AVE ,1BR/1BA Apartment - 100 Canton Ave, ONE BEDROOM ONE BATHROOM APARTMENT 100 CANTON AVE ,,8/8/15 5:04,17:58.5,17:58.5,2,39,-71.0697,42.2664,2095 1 1BR 1BA Apartment   100 Canton Ave -71.0697 42.2664,MILTON,Maturing Suburbs,416300.0,25021416300.0,,,
180635,612662,6000,3, THREE BEDROOM THREE BATHROOM APARTMENT 630 WASHINGTON ST ,3BR/3BA Apartment - 630 Washington St, THREE BEDROOM THREE BATHROOM APARTMENT 630 WASHINGTON ST ,,10/24/15 0:45,17:58.5,17:58.5,2,39,-71.0625,42.3522,6000 3 3BR 3BA Apartment   630 Washington St -71.0625 42.3522,BOSTON,Inner Core,70101.0,25025070101.0,Downtown,Chinatown,CHINATOWN/FINANCIAL
180636,612663,2800,3, THREE BEDROOM ONE BATHROOM APARTMENT 1460 TREMONT ST ,3BR/1BA Apartment - 1460 Tremont St, THREE BEDROOM ONE BATHROOM APARTMENT 1460 TREMONT ST ,,11/3/15 22:31,17:58.5,17:58.5,2,39,-71.0977,42.3319,2800 3 3BR 1BA Apartment   1460 Tremont St -71.0977 42.3319,BOSTON,Inner Core,80801.0,25025080801.0,Mission Hill,Mission Hill,MISSION HILL
180637,612664,6000,5, FIVE BEDROOM FIVE BATHROOM APARTMENT 68 PONTIAC ST ,5BR/5BA Apartment - 68 Pontiac St, FIVE BEDROOM FIVE BATHROOM APARTMENT 68 PONTIAC ST ,,12/5/15 14:55,17:58.5,17:58.5,2,39,-71.1021,42.3306,6000 5 5BR 5BA Apartment   68 Pontiac St -71.1021 42.3306,BOSTON,Inner Core,80900.0,25025080900.0,Mission Hill,Mission Hill,MISSION HILL
180639,612666,1950,1, ONE BEDROOM ONE BATHROOM APARTMENT 44 N BENNET ST ,1BR/1BA Apartment - 44 N Bennet St, ONE BEDROOM ONE BATHROOM APARTMENT 44 N BENNET ST ,,11/8/15 21:27,17:58.5,17:58.5,2,39,-71.0549,42.3656,1950 1 1BR 1BA Apartment   44 N Bennet St -71.0549 42.3656,BOSTON,Inner Core,30400.0,25025030400.0,North End,North End,N END/WATERFRONT
180640,612667,2100,3, THREE BEDROOM ONE BATHROOM APARTMENT 791 COLUMBIA RD ,3BR/1BA Apartment - 791 Columbia Rd, THREE BEDROOM ONE BATHROOM APARTMENT 791 COLUMBIA RD ,,12/4/15 1:07,17:58.6,17:58.6,2,39,-71.0574,42.3201,2100 3 3BR 1BA Apartment   791 Columbia Rd -71.0574 42.3201,BOSTON,Inner Core,90700.0,25025090700.0,Dorchester,Dorchester,UPHAMS SAVIN
180641,612668,2350,2, TWO BEDROOM ONE BATHROOM APARTMENT 56 ALLEGHANY ST ,2BR/1BA Apartment - 56 Alleghany St, TWO BEDROOM ONE BATHROOM APARTMENT 56 ALLEGHANY ST ,,12/4/15 1:37,17:58.6,17:58.6,2,39,-71.0999,42.3304,2350 2 2BR 1BA Apartment   56 Alleghany St -71.0999 42.3304,BOSTON,Inner Core,80900.0,25025080900.0,Mission Hill,Mission Hill,MISSION HILL
180642,612669,3900,2, TWO BEDROOM ONE FIVE BATHROOM APARTMENT 50 CHANDLER ST ,2BR/1.5BA Apartment - 50 Chandler St, TWO BEDROOM ONE FIVE BATHROOM APARTMENT 50 CHANDLER ST ,,10/9/15 18:33,17:58.6,17:58.6,2,39,-71.0715,42.3468,3900 2 2BR 1 5BA Apartment   50 Chandler St -71.0715 42.3468,BOSTON,Inner Core,70300.0,25025070300.0,South End,South End,SOUTH END
180643,612670,2500,3, THREE BEDROOM ONE BATHROOM APARTMENT 11 FORBES ST ,3BR/1BA Apartment - 11 Forbes St, THREE BEDROOM ONE BATHROOM APARTMENT 11 FORBES ST ,,8/21/15 17:04,17:58.6,17:58.6,2,39,-71.108,42.322,2500 3 3BR 1BA Apartment   11 Forbes St -71.108 42.322,BOSTON,Inner Core,120600.0,25025120600.0,Jamaica Plain,Jamaica Plain,JP PONDSIDE
180644,612671,5424,2, TWO BEDROOM TWO BATHROOM APARTMENT 40 GARRISON ST ,2BR/2BA Apartment - 40 Garrison St, TWO BEDROOM TWO BATHROOM APARTMENT 40 GARRISON ST ,,10/10/15 16:45,17:58.6,17:58.6,2,39,-71.0793,42.3458,5424 2 2BR 2BA Apartment   40 Garrison St -71.0793 42.3458,BOSTON,Inner Core,10600.0,25025010600.0,Back Bay,Back Bay,BACK BAY B HILL
180645,612672,3300,3, THREE BEDROOM ONE FIVE BATHROOM APARTMENT 80 ALLEGHANY ST ,3BR/1.5BA Apartment - 80 Alleghany St, THREE BEDROOM ONE FIVE BATHROOM APARTMENT 80 ALLEGHANY ST ,,6/10/15 16:08,17:58.6,17:58.6,2,39,-71.1007,42.3309,3300 3 3BR 1 5BA Apartment   80 Alleghany St -71.1007 42.3309,BOSTON,Inner Core,80900.0,25025080900.0,Mission Hill,Mission Hill,MISSION HILL
180646,612673,3975,4, FOUR BEDROOM ONE BATHROOM APARTMENT 616 COLUMBUS AVE ,4BR/1BA Apartment - 616 Columbus Ave, FOUR BEDROOM ONE BATHROOM APARTMENT 616 COLUMBUS AVE ,,10/11/15 17:32,17:58.6,17:58.6,2,39,-71.0831,42.3395,3975 4 4BR 1BA Apartment   616 Columbus Ave -71.0831 42.3395,BOSTON,Inner Core,70800.0,25025070800.0,South End,Roxbury,SOUTH END
180647,612674,6500,5, FIVE BEDROOM FIVE BATHROOM HOUSE 73 THORNDIKE ST ,5BR/5BA House - 73 Thorndike St, FIVE BEDROOM FIVE BATHROOM HOUSE 73 THORNDIKE ST ,,11/27/15 15:45,17:58.6,17:58.6,2,39,-71.0811,42.37,6500 5 5BR 5BA House   73 Thorndike St -71.0811 42.37,CAMBRIDGE,Inner Core,352102.0,25017352102.0,East Cambridge,,
180648,612675,2175,0, 0 BEDROOM ONE BATHROOM APARTMENT FIVE LONGFELLOW PL ,0BR/1BA Apartment - 5 Longfellow Pl, 0 BEDROOM ONE BATHROOM APARTMENT FIVE LONGFELLOW PL ,,8/8/15 4:22,17:58.6,17:58.6,2,39,-71.0637,42.3634,2175 0 0BR 1BA Apartment   5 Longfellow Pl -71.0637 42.3634,BOSTON,Inner Core,20303.0,25025020303.0,West End,West End,N END/WATERFRONT
180649,612676,2200,2, TWO BEDROOM ONE BATHROOM APARTMENT EIGHT BALDWIN PL ,2BR/1BA Apartment - 8 Baldwin Pl, TWO BEDROOM ONE BATHROOM APARTMENT EIGHT BALDWIN PL ,,11/6/15 22:21,17:58.6,17:58.6,2,39,-71.0561,42.3647,2200 2 2BR 1BA Apartment   8 Baldwin Pl -71.0561 42.3647,BOSTON,Inner Core,30200.0,25025030200.0,North End,North End,N END/WATERFRONT
180650,612677,2615,1, ONE BEDROOM ONE BATHROOM APARTMENT ONE PARK LN ,1BR/1BA Apartment - 1 Park Ln, ONE BEDROOM ONE BATHROOM APARTMENT ONE PARK LN ,,8/8/15 6:44,17:58.6,17:58.6,2,39,-71.0378,42.3478,2615 1 1BR 1BA Apartment   1 Park Ln -71.0378 42.3478,BOSTON,Inner Core,60600.0,25025060600.0,South Boston Waterfront,South Boston Waterfront,SEAPORT FT PT
